{
  "id": "8753520",
  "name": "T1 (La Casilla → Bolueta)",
  "ref": "T1",
  "description": "Ruta real de tram urbano gestionada por Eusko Trenbideak – Ferrocarriles Vascos.",
  "distanceKm": 6.55,
  "elevationGain": 0.0,
  "elevationLoss": 0.0,
  "estWalkingSeconds": 5241,
  "estRunningSeconds": 2144,
  "stopsCount": 16,
  "coords": [
    [
      43.2577762,
      -2.9443695,
      800.0
    ],
    [
      43.2580084,
      -2.9490391,
      800.0
    ],
    [
      43.2597274,
      -2.9512858,
      800.0
    ],
    [
      43.2618014,
      -2.949069,
      800.0
    ],
    [
      43.263239,
      -2.9462324,
      800.0
    ],
    [
      43.2662568,
      -2.9439413,
      800.0
    ],
    [
      43.2685873,
      -2.9405811,
      800.0
    ],
    [
      43.2686489,
      -2.93667,
      800.0
    ],
    [
      43.2662921,
      -2.9287595,
      800.0
    ],
    [
      43.2643684,
      -2.9261236,
      800.0
    ],
    [
      43.2609717,
      -2.9266195,
      800.0
    ],
    [
      43.2591554,
      -2.9257965,
      800.0
    ],
    [
      43.2558348,
      -2.9243922,
      800.0
    ],
    [
      43.2540638,
      -2.9217273,
      800.0
    ],
    [
      43.2453223,
      -2.9159137,
      800.0
    ],
    [
      43.2472363,
      -2.9049192,
      800.0
    ]
  ],
  "stops": [
    {
      "id": "5020348125",
      "name": "La Casilla",
      "lat": 43.2577762,
      "lon": -2.9443695,
      "role": "stop"
    },
    {
      "id": "1377479823",
      "name": "Basurto",
      "lat": 43.2580084,
      "lon": -2.9490391,
      "role": "stop"
    },
    {
      "id": "5476063808",
      "name": "Ospitalea/Hospital",
      "lat": 43.2597274,
      "lon": -2.9512858,
      "role": "stop"
    },
    {
      "id": "582138782",
      "name": "San Mamés",
      "lat": 43.2618014,
      "lon": -2.949069,
      "role": "stop"
    },
    {
      "id": "4432868864",
      "name": "Sabino Arana",
      "lat": 43.263239,
      "lon": -2.9462324,
      "role": "stop"
    },
    {
      "id": "582138784",
      "name": "Euskalduna",
      "lat": 43.2662568,
      "lon": -2.9439413,
      "role": "stop"
    },
    {
      "id": "582037358",
      "name": "Abandoibarra",
      "lat": 43.2685873,
      "lon": -2.9405811,
      "role": "stop"
    },
    {
      "id": "582037359",
      "name": "Guggenheim",
      "lat": 43.2686489,
      "lon": -2.93667,
      "role": "stop"
    },
    {
      "id": "582031670",
      "name": "Uribitarte",
      "lat": 43.2662921,
      "lon": -2.9287595,
      "role": "stop"
    },
    {
      "id": "5359690882",
      "name": "Pío Baroja",
      "lat": 43.2643684,
      "lon": -2.9261236,
      "role": "stop"
    },
    {
      "id": "582149252",
      "name": "Abando",
      "lat": 43.2609717,
      "lon": -2.9266195,
      "role": "stop"
    },
    {
      "id": "4432818969",
      "name": "Arriaga",
      "lat": 43.2591554,
      "lon": -2.9257965,
      "role": "stop"
    },
    {
      "id": "582158464",
      "name": "Ribera",
      "lat": 43.2558348,
      "lon": -2.9243922,
      "role": "stop"
    },
    {
      "id": "582166443",
      "name": "Atxuri",
      "lat": 43.2540638,
      "lon": -2.9217273,
      "role": "stop"
    },
    {
      "id": "9599538224",
      "name": "Abusu",
      "lat": 43.2453223,
      "lon": -2.9159137,
      "role": "stop"
    },
    {
      "id": "7045257423",
      "name": "Bolueta",
      "lat": 43.2472363,
      "lon": -2.9049192,
      "role": "stop"
    }
  ]
}