{
  "id": "4665786",
  "name": "T6: Ciutadella | Vila Olímpica => Estació de Sant Adrià",
  "ref": "T6",
  "description": "Ruta real de tram urbano gestionada por TRAM.",
  "distanceKm": 6.79,
  "elevationGain": 0.0,
  "elevationLoss": 0.0,
  "estWalkingSeconds": 5429,
  "estRunningSeconds": 2220,
  "stopsCount": 14,
  "coords": [
    [
      41.3876379,
      2.191917,
      800.0
    ],
    [
      41.3901589,
      2.1885831,
      800.0
    ],
    [
      41.3940631,
      2.186935,
      800.0
    ],
    [
      41.3975471,
      2.1869019,
      800.0
    ],
    [
      41.4025778,
      2.1874369,
      800.0
    ],
    [
      41.4080857,
      2.1936474,
      800.0
    ],
    [
      41.4113468,
      2.19793,
      800.0
    ],
    [
      41.41646,
      2.2047556,
      800.0
    ],
    [
      41.4201024,
      2.2096149,
      800.0
    ],
    [
      41.4171697,
      2.2135446,
      800.0
    ],
    [
      41.4194058,
      2.2176683,
      800.0
    ],
    [
      41.4183226,
      2.2209248,
      800.0
    ],
    [
      41.4188705,
      2.226179,
      800.0
    ],
    [
      41.4239413,
      2.2305837,
      800.0
    ]
  ],
  "stops": [
    {
      "id": "3394604141",
      "name": "Ciutadella | Vila Olímpica",
      "lat": 41.3876379,
      "lon": 2.191917,
      "role": "stop"
    },
    {
      "id": "3394604179",
      "name": "Wellington | UPF",
      "lat": 41.3901589,
      "lon": 2.1885831,
      "role": "stop"
    },
    {
      "id": "3394604164",
      "name": "Marina",
      "lat": 41.3940631,
      "lon": 2.186935,
      "role": "stop"
    },
    {
      "id": "3394604129",
      "name": "Auditori | Teatre Nacional",
      "lat": 41.3975471,
      "lon": 2.1869019,
      "role": "stop"
    },
    {
      "id": "11890892883",
      "name": "Glòries",
      "lat": 41.4025778,
      "lon": 2.1874369,
      "role": "stop"
    },
    {
      "id": "3394604134",
      "name": "Can Jaumandreu",
      "lat": 41.4080857,
      "lon": 2.1936474,
      "role": "stop"
    },
    {
      "id": "3394604146",
      "name": "Espronceda",
      "lat": 41.4113468,
      "lon": 2.19793,
      "role": "stop"
    },
    {
      "id": "3394604172",
      "name": "Sant Martí de Provençals",
      "lat": 41.41646,
      "lon": 2.2047556,
      "role": "stop"
    },
    {
      "id": "3394604130",
      "name": "Besòs",
      "lat": 41.4201024,
      "lon": 2.2096149,
      "role": "stop"
    },
    {
      "id": "3394604126",
      "name": "Alfons el Magnànim",
      "lat": 41.4171697,
      "lon": 2.2135446,
      "role": "stop"
    },
    {
      "id": "3394604166",
      "name": "Parc del Besòs",
      "lat": 41.4194058,
      "lon": 2.2176683,
      "role": "stop"
    },
    {
      "id": "3394604162",
      "name": "La Mina",
      "lat": 41.4183226,
      "lon": 2.2209248,
      "role": "stop"
    },
    {
      "id": "3394604138",
      "name": "Port Fòrum",
      "lat": 41.4188705,
      "lon": 2.226179,
      "role": "stop"
    },
    {
      "id": "3394604148",
      "name": "Estació de Sant Adrià",
      "lat": 41.4239413,
      "lon": 2.2305837,
      "role": "stop"
    }
  ]
}