[
  {
    "id": "4665781",
    "name": "T4: Verdaguer => Estació de Sant Adrià",
    "ref": "T4",
    "description": "Ruta real de tram urbano gestionada por TRAM.",
    "distanceKm": 6.25,
    "elevationGain": 0.0,
    "elevationLoss": 0.0,
    "estWalkingSeconds": 4998,
    "estRunningSeconds": 2044,
    "stopsCount": 13,
    "coords": [
      [
        41.3984763,
        2.1674639,
        800.0
      ],
      [
        41.4001598,
        2.1741732,
        800.0
      ],
      [
        41.4018583,
        2.1811543,
        800.0
      ],
      [
        41.4026216,
        2.1873791,
        800.0
      ],
      [
        41.404363,
        2.191515,
        800.0
      ],
      [
        41.4060605,
        2.1982421,
        800.0
      ],
      [
        41.4077339,
        2.2049435,
        800.0
      ],
      [
        41.4091122,
        2.2104564,
        800.0
      ],
      [
        41.4104628,
        2.2156503,
        800.0
      ],
      [
        41.4118206,
        2.2198859,
        800.0
      ],
      [
        41.4152344,
        2.2229671,
        800.0
      ],
      [
        41.4188705,
        2.226179,
        800.0
      ],
      [
        41.4239413,
        2.2305837,
        800.0
      ]
    ],
    "stops": [
      {
        "id": "10922876096",
        "name": "Verdaguer",
        "lat": 41.3984763,
        "lon": 2.1674639,
        "role": "stop"
      },
      {
        "id": "10922876100",
        "name": "Sicília",
        "lat": 41.4001598,
        "lon": 2.1741732,
        "role": "stop"
      },
      {
        "id": "10922876098",
        "name": "Monumental",
        "lat": 41.4018583,
        "lon": 2.1811543,
        "role": "stop"
      },
      {
        "id": "11031989215",
        "name": "Glòries",
        "lat": 41.4026216,
        "lon": 2.1873791,
        "role": "stop"
      },
      {
        "id": "3394604132",
        "name": "Ca l'Aranyó",
        "lat": 41.404363,
        "lon": 2.191515,
        "role": "stop"
      },
      {
        "id": "3394604168",
        "name": "Pere IV",
        "lat": 41.4060605,
        "lon": 2.1982421,
        "role": "stop"
      },
      {
        "id": "3394604150",
        "name": "Fluvià",
        "lat": 41.4077339,
        "lon": 2.2049435,
        "role": "stop"
      },
      {
        "id": "3394604176",
        "name": "Selva de Mar",
        "lat": 41.4091122,
        "lon": 2.2104564,
        "role": "stop"
      },
      {
        "id": "3394604142",
        "name": "El Maresme",
        "lat": 41.4104628,
        "lon": 2.2156503,
        "role": "stop"
      },
      {
        "id": "3394604152",
        "name": "Fòrum",
        "lat": 41.4118206,
        "lon": 2.2198859,
        "role": "stop"
      },
      {
        "id": "3394604136",
        "name": "Campus Diagonal-Besòs",
        "lat": 41.4152344,
        "lon": 2.2229671,
        "role": "stop"
      },
      {
        "id": "3394604138",
        "name": "Port Fòrum",
        "lat": 41.4188705,
        "lon": 2.226179,
        "role": "stop"
      },
      {
        "id": "3394604148",
        "name": "Estació de Sant Adrià",
        "lat": 41.4239413,
        "lon": 2.2305837,
        "role": "stop"
      }
    ]
  },
  {
    "id": "4665782",
    "name": "T4: Estació de Sant Adrià => Verdaguer",
    "ref": "T4",
    "description": "Ruta real de tram urbano gestionada por TRAM.",
    "distanceKm": 6.25,
    "elevationGain": 0.0,
    "elevationLoss": 0.0,
    "estWalkingSeconds": 5001,
    "estRunningSeconds": 2045,
    "stopsCount": 13,
    "coords": [
      [
        41.4239698,
        2.2305117,
        800.0
      ],
      [
        41.4188838,
        2.2261494,
        800.0
      ],
      [
        41.4152598,
        2.2228987,
        800.0
      ],
      [
        41.4118502,
        2.2198212,
        800.0
      ],
      [
        41.4105255,
        2.215634,
        800.0
      ],
      [
        41.4092736,
        2.2104084,
        800.0
      ],
      [
        41.4078868,
        2.2048765,
        800.0
      ],
      [
        41.4062304,
        2.1982588,
        800.0
      ],
      [
        41.404517,
        2.1914398,
        800.0
      ],
      [
        41.4025864,
        2.1872825,
        800.0
      ],
      [
        41.4019891,
        2.1808813,
        800.0
      ],
      [
        41.4001872,
        2.174161,
        800.0
      ],
      [
        41.3984763,
        2.1674639,
        800.0
      ]
    ],
    "stops": [
      {
        "id": "3394604149",
        "name": "Estació de Sant Adrià",
        "lat": 41.4239698,
        "lon": 2.2305117,
        "role": "stop"
      },
      {
        "id": "3394604139",
        "name": "Port Fòrum",
        "lat": 41.4188838,
        "lon": 2.2261494,
        "role": "stop"
      },
      {
        "id": "3394604137",
        "name": "Campus Diagonal-Besòs",
        "lat": 41.4152598,
        "lon": 2.2228987,
        "role": "stop"
      },
      {
        "id": "3394604153",
        "name": "Fòrum",
        "lat": 41.4118502,
        "lon": 2.2198212,
        "role": "stop"
      },
      {
        "id": "3394604143",
        "name": "El Maresme",
        "lat": 41.4105255,
        "lon": 2.215634,
        "role": "stop"
      },
      {
        "id": "3394604177",
        "name": "Selva de Mar",
        "lat": 41.4092736,
        "lon": 2.2104084,
        "role": "stop"
      },
      {
        "id": "3394604151",
        "name": "Fluvià",
        "lat": 41.4078868,
        "lon": 2.2048765,
        "role": "stop"
      },
      {
        "id": "3394604169",
        "name": "Pere IV",
        "lat": 41.4062304,
        "lon": 2.1982588,
        "role": "stop"
      },
      {
        "id": "3394604133",
        "name": "Ca l'Aranyó",
        "lat": 41.404517,
        "lon": 2.1914398,
        "role": "stop"
      },
      {
        "id": "11890892884",
        "name": "Glòries",
        "lat": 41.4025864,
        "lon": 2.1872825,
        "role": "stop"
      },
      {
        "id": "10922876099",
        "name": "Monumental",
        "lat": 41.4019891,
        "lon": 2.1808813,
        "role": "stop"
      },
      {
        "id": "10922876101",
        "name": "Sicília",
        "lat": 41.4001872,
        "lon": 2.174161,
        "role": "stop"
      },
      {
        "id": "10922876096",
        "name": "Verdaguer",
        "lat": 41.3984763,
        "lon": 2.1674639,
        "role": "stop"
      }
    ]
  },
  {
    "id": "4665783",
    "name": "T5: Ciutadella | Vila Olímpica => Gorg",
    "ref": "T5",
    "description": "Ruta real de tram urbano gestionada por TRAM.",
    "distanceKm": 8.26,
    "elevationGain": 0.0,
    "elevationLoss": 0.0,
    "estWalkingSeconds": 6611,
    "estRunningSeconds": 2704,
    "stopsCount": 16,
    "coords": [
      [
        41.3876379,
        2.191917,
        800.0
      ],
      [
        41.3901589,
        2.1885831,
        800.0
      ],
      [
        41.3940631,
        2.186935,
        800.0
      ],
      [
        41.3975471,
        2.1869019,
        800.0
      ],
      [
        41.4025778,
        2.1874369,
        800.0
      ],
      [
        41.4080857,
        2.1936474,
        800.0
      ],
      [
        41.4113468,
        2.19793,
        800.0
      ],
      [
        41.41646,
        2.2047556,
        800.0
      ],
      [
        41.4201024,
        2.2096149,
        800.0
      ],
      [
        41.4171697,
        2.2135446,
        800.0
      ],
      [
        41.4194058,
        2.2176683,
        800.0
      ],
      [
        41.4226283,
        2.2219791,
        800.0
      ],
      [
        41.4274396,
        2.2254392,
        800.0
      ],
      [
        41.4305288,
        2.2227523,
        800.0
      ],
      [
        41.4349292,
        2.2276166,
        800.0
      ],
      [
        41.4399454,
        2.2332535,
        800.0
      ]
    ],
    "stops": [
      {
        "id": "3394604141",
        "name": "Ciutadella | Vila Olímpica",
        "lat": 41.3876379,
        "lon": 2.191917,
        "role": "stop"
      },
      {
        "id": "3394604179",
        "name": "Wellington | UPF",
        "lat": 41.3901589,
        "lon": 2.1885831,
        "role": "stop"
      },
      {
        "id": "3394604164",
        "name": "Marina",
        "lat": 41.3940631,
        "lon": 2.186935,
        "role": "stop"
      },
      {
        "id": "3394604129",
        "name": "Auditori | Teatre Nacional",
        "lat": 41.3975471,
        "lon": 2.1869019,
        "role": "stop"
      },
      {
        "id": "11890892883",
        "name": "Glòries",
        "lat": 41.4025778,
        "lon": 2.1874369,
        "role": "stop"
      },
      {
        "id": "3394604134",
        "name": "Can Jaumandreu",
        "lat": 41.4080857,
        "lon": 2.1936474,
        "role": "stop"
      },
      {
        "id": "3394604146",
        "name": "Espronceda",
        "lat": 41.4113468,
        "lon": 2.19793,
        "role": "stop"
      },
      {
        "id": "3394604172",
        "name": "Sant Martí de Provençals",
        "lat": 41.41646,
        "lon": 2.2047556,
        "role": "stop"
      },
      {
        "id": "3394604130",
        "name": "Besòs",
        "lat": 41.4201024,
        "lon": 2.2096149,
        "role": "stop"
      },
      {
        "id": "3394604126",
        "name": "Alfons el Magnànim",
        "lat": 41.4171697,
        "lon": 2.2135446,
        "role": "stop"
      },
      {
        "id": "3394604166",
        "name": "Parc del Besòs",
        "lat": 41.4194058,
        "lon": 2.2176683,
        "role": "stop"
      },
      {
        "id": "3394604158",
        "name": "La Catalana",
        "lat": 41.4226283,
        "lon": 2.2219791,
        "role": "stop"
      },
      {
        "id": "3394604171",
        "name": "Sant Joan Baptista",
        "lat": 41.4274396,
        "lon": 2.2254392,
        "role": "stop"
      },
      {
        "id": "3394604144",
        "name": "Encants de Sant Adrià",
        "lat": 41.4305288,
        "lon": 2.2227523,
        "role": "stop"
      },
      {
        "id": "3394604174",
        "name": "Sant Roc",
        "lat": 41.4349292,
        "lon": 2.2276166,
        "role": "stop"
      },
      {
        "id": "3394604156",
        "name": "Gorg",
        "lat": 41.4399454,
        "lon": 2.2332535,
        "role": "stop"
      }
    ]
  },
  {
    "id": "4665784",
    "name": "T5: Gorg => Ciutadella | Vila Olímpica",
    "ref": "T5",
    "description": "Ruta real de tram urbano gestionada por TRAM.",
    "distanceKm": 8.27,
    "elevationGain": 0.0,
    "elevationLoss": 0.0,
    "estWalkingSeconds": 6612,
    "estRunningSeconds": 2705,
    "stopsCount": 16,
    "coords": [
      [
        41.4399817,
        2.2331866,
        800.0
      ],
      [
        41.4349465,
        2.2275686,
        800.0
      ],
      [
        41.4305587,
        2.2227104,
        800.0
      ],
      [
        41.4273203,
        2.2253427,
        800.0
      ],
      [
        41.4226667,
        2.2219075,
        800.0
      ],
      [
        41.419444,
        2.2176113,
        800.0
      ],
      [
        41.4171932,
        2.2135869,
        800.0
      ],
      [
        41.4201141,
        2.2095826,
        800.0
      ],
      [
        41.416499,
        2.2047358,
        800.0
      ],
      [
        41.4113792,
        2.1979225,
        800.0
      ],
      [
        41.4081175,
        2.1935727,
        800.0
      ],
      [
        41.4025864,
        2.1872825,
        800.0
      ],
      [
        41.3975452,
        2.1868584,
        800.0
      ],
      [
        41.3940648,
        2.186896,
        800.0
      ],
      [
        41.3901383,
        2.1885558,
        800.0
      ],
      [
        41.3876173,
        2.1918882,
        800.0
      ]
    ],
    "stops": [
      {
        "id": "3394604157",
        "name": "Gorg",
        "lat": 41.4399817,
        "lon": 2.2331866,
        "role": "stop"
      },
      {
        "id": "3394604175",
        "name": "Sant Roc",
        "lat": 41.4349465,
        "lon": 2.2275686,
        "role": "stop"
      },
      {
        "id": "3394604145",
        "name": "Encants de Sant Adrià",
        "lat": 41.4305587,
        "lon": 2.2227104,
        "role": "stop"
      },
      {
        "id": "3394604170",
        "name": "Sant Joan Baptista",
        "lat": 41.4273203,
        "lon": 2.2253427,
        "role": "stop"
      },
      {
        "id": "3394604159",
        "name": "La Catalana",
        "lat": 41.4226667,
        "lon": 2.2219075,
        "role": "stop"
      },
      {
        "id": "3394604167",
        "name": "Parc del Besòs",
        "lat": 41.419444,
        "lon": 2.2176113,
        "role": "stop"
      },
      {
        "id": "3394604127",
        "name": "Alfons el Magnànim",
        "lat": 41.4171932,
        "lon": 2.2135869,
        "role": "stop"
      },
      {
        "id": "3394604131",
        "name": "Besòs",
        "lat": 41.4201141,
        "lon": 2.2095826,
        "role": "stop"
      },
      {
        "id": "3394604173",
        "name": "Sant Martí de Provençals",
        "lat": 41.416499,
        "lon": 2.2047358,
        "role": "stop"
      },
      {
        "id": "3394604147",
        "name": "Espronceda",
        "lat": 41.4113792,
        "lon": 2.1979225,
        "role": "stop"
      },
      {
        "id": "3394604135",
        "name": "Can Jaumandreu",
        "lat": 41.4081175,
        "lon": 2.1935727,
        "role": "stop"
      },
      {
        "id": "11890892884",
        "name": "Glòries",
        "lat": 41.4025864,
        "lon": 2.1872825,
        "role": "stop"
      },
      {
        "id": "3394604128",
        "name": "Auditori | Teatre Nacional",
        "lat": 41.3975452,
        "lon": 2.1868584,
        "role": "stop"
      },
      {
        "id": "3394604165",
        "name": "Marina",
        "lat": 41.3940648,
        "lon": 2.186896,
        "role": "stop"
      },
      {
        "id": "3394604178",
        "name": "Wellington | UPF",
        "lat": 41.3901383,
        "lon": 2.1885558,
        "role": "stop"
      },
      {
        "id": "3394604140",
        "name": "Ciutadella | Vila Olímpica",
        "lat": 41.3876173,
        "lon": 2.1918882,
        "role": "stop"
      }
    ]
  },
  {
    "id": "4665785",
    "name": "T6: Estació de Sant Adrià => Ciutadella | Vila Olímpica",
    "ref": "T6",
    "description": "Ruta real de tram urbano gestionada por TRAM.",
    "distanceKm": 6.79,
    "elevationGain": 0.0,
    "elevationLoss": 0.0,
    "estWalkingSeconds": 5432,
    "estRunningSeconds": 2222,
    "stopsCount": 14,
    "coords": [
      [
        41.4239698,
        2.2305117,
        800.0
      ],
      [
        41.4188838,
        2.2261494,
        800.0
      ],
      [
        41.418424,
        2.2210723,
        800.0
      ],
      [
        41.419444,
        2.2176113,
        800.0
      ],
      [
        41.4171932,
        2.2135869,
        800.0
      ],
      [
        41.4201141,
        2.2095826,
        800.0
      ],
      [
        41.416499,
        2.2047358,
        800.0
      ],
      [
        41.4113792,
        2.1979225,
        800.0
      ],
      [
        41.4081175,
        2.1935727,
        800.0
      ],
      [
        41.4025864,
        2.1872825,
        800.0
      ],
      [
        41.3975452,
        2.1868584,
        800.0
      ],
      [
        41.3940648,
        2.186896,
        800.0
      ],
      [
        41.3901383,
        2.1885558,
        800.0
      ],
      [
        41.3876173,
        2.1918882,
        800.0
      ]
    ],
    "stops": [
      {
        "id": "3394604149",
        "name": "Estació de Sant Adrià",
        "lat": 41.4239698,
        "lon": 2.2305117,
        "role": "stop"
      },
      {
        "id": "3394604139",
        "name": "Port Fòrum",
        "lat": 41.4188838,
        "lon": 2.2261494,
        "role": "stop"
      },
      {
        "id": "3394604163",
        "name": "La Mina",
        "lat": 41.418424,
        "lon": 2.2210723,
        "role": "stop"
      },
      {
        "id": "3394604167",
        "name": "Parc del Besòs",
        "lat": 41.419444,
        "lon": 2.2176113,
        "role": "stop"
      },
      {
        "id": "3394604127",
        "name": "Alfons el Magnànim",
        "lat": 41.4171932,
        "lon": 2.2135869,
        "role": "stop"
      },
      {
        "id": "3394604131",
        "name": "Besòs",
        "lat": 41.4201141,
        "lon": 2.2095826,
        "role": "stop"
      },
      {
        "id": "3394604173",
        "name": "Sant Martí de Provençals",
        "lat": 41.416499,
        "lon": 2.2047358,
        "role": "stop"
      },
      {
        "id": "3394604147",
        "name": "Espronceda",
        "lat": 41.4113792,
        "lon": 2.1979225,
        "role": "stop"
      },
      {
        "id": "3394604135",
        "name": "Can Jaumandreu",
        "lat": 41.4081175,
        "lon": 2.1935727,
        "role": "stop"
      },
      {
        "id": "11890892884",
        "name": "Glòries",
        "lat": 41.4025864,
        "lon": 2.1872825,
        "role": "stop"
      },
      {
        "id": "3394604128",
        "name": "Auditori | Teatre Nacional",
        "lat": 41.3975452,
        "lon": 2.1868584,
        "role": "stop"
      },
      {
        "id": "3394604165",
        "name": "Marina",
        "lat": 41.3940648,
        "lon": 2.186896,
        "role": "stop"
      },
      {
        "id": "3394604178",
        "name": "Wellington | UPF",
        "lat": 41.3901383,
        "lon": 2.1885558,
        "role": "stop"
      },
      {
        "id": "3394604140",
        "name": "Ciutadella | Vila Olímpica",
        "lat": 41.3876173,
        "lon": 2.1918882,
        "role": "stop"
      }
    ]
  },
  {
    "id": "4665786",
    "name": "T6: Ciutadella | Vila Olímpica => Estació de Sant Adrià",
    "ref": "T6",
    "description": "Ruta real de tram urbano gestionada por TRAM.",
    "distanceKm": 6.79,
    "elevationGain": 0.0,
    "elevationLoss": 0.0,
    "estWalkingSeconds": 5429,
    "estRunningSeconds": 2220,
    "stopsCount": 14,
    "coords": [
      [
        41.3876379,
        2.191917,
        800.0
      ],
      [
        41.3901589,
        2.1885831,
        800.0
      ],
      [
        41.3940631,
        2.186935,
        800.0
      ],
      [
        41.3975471,
        2.1869019,
        800.0
      ],
      [
        41.4025778,
        2.1874369,
        800.0
      ],
      [
        41.4080857,
        2.1936474,
        800.0
      ],
      [
        41.4113468,
        2.19793,
        800.0
      ],
      [
        41.41646,
        2.2047556,
        800.0
      ],
      [
        41.4201024,
        2.2096149,
        800.0
      ],
      [
        41.4171697,
        2.2135446,
        800.0
      ],
      [
        41.4194058,
        2.2176683,
        800.0
      ],
      [
        41.4183226,
        2.2209248,
        800.0
      ],
      [
        41.4188705,
        2.226179,
        800.0
      ],
      [
        41.4239413,
        2.2305837,
        800.0
      ]
    ],
    "stops": [
      {
        "id": "3394604141",
        "name": "Ciutadella | Vila Olímpica",
        "lat": 41.3876379,
        "lon": 2.191917,
        "role": "stop"
      },
      {
        "id": "3394604179",
        "name": "Wellington | UPF",
        "lat": 41.3901589,
        "lon": 2.1885831,
        "role": "stop"
      },
      {
        "id": "3394604164",
        "name": "Marina",
        "lat": 41.3940631,
        "lon": 2.186935,
        "role": "stop"
      },
      {
        "id": "3394604129",
        "name": "Auditori | Teatre Nacional",
        "lat": 41.3975471,
        "lon": 2.1869019,
        "role": "stop"
      },
      {
        "id": "11890892883",
        "name": "Glòries",
        "lat": 41.4025778,
        "lon": 2.1874369,
        "role": "stop"
      },
      {
        "id": "3394604134",
        "name": "Can Jaumandreu",
        "lat": 41.4080857,
        "lon": 2.1936474,
        "role": "stop"
      },
      {
        "id": "3394604146",
        "name": "Espronceda",
        "lat": 41.4113468,
        "lon": 2.19793,
        "role": "stop"
      },
      {
        "id": "3394604172",
        "name": "Sant Martí de Provençals",
        "lat": 41.41646,
        "lon": 2.2047556,
        "role": "stop"
      },
      {
        "id": "3394604130",
        "name": "Besòs",
        "lat": 41.4201024,
        "lon": 2.2096149,
        "role": "stop"
      },
      {
        "id": "3394604126",
        "name": "Alfons el Magnànim",
        "lat": 41.4171697,
        "lon": 2.2135446,
        "role": "stop"
      },
      {
        "id": "3394604166",
        "name": "Parc del Besòs",
        "lat": 41.4194058,
        "lon": 2.2176683,
        "role": "stop"
      },
      {
        "id": "3394604162",
        "name": "La Mina",
        "lat": 41.4183226,
        "lon": 2.2209248,
        "role": "stop"
      },
      {
        "id": "3394604138",
        "name": "Port Fòrum",
        "lat": 41.4188705,
        "lon": 2.226179,
        "role": "stop"
      },
      {
        "id": "3394604148",
        "name": "Estació de Sant Adrià",
        "lat": 41.4239413,
        "lon": 2.2305837,
        "role": "stop"
      }
    ]
  },
  {
    "id": "4666995",
    "name": "T1: Bon Viatge => Francesc Macià",
    "ref": "T1",
    "description": "Ruta real de tram urbano gestionada por TRAM.",
    "distanceKm": 9.45,
    "elevationGain": 0.0,
    "elevationLoss": 0.0,
    "estWalkingSeconds": 7562,
    "estRunningSeconds": 3093,
    "stopsCount": 21,
    "coords": [
      [
        41.3645583,
        2.0587489,
        800.0
      ],
      [
        41.3603118,
        2.0622037,
        800.0
      ],
      [
        41.356649,
        2.0660545,
        800.0
      ],
      [
        41.3576735,
        2.0702144,
        800.0
      ],
      [
        41.3612389,
        2.0726917,
        800.0
      ],
      [
        41.3653162,
        2.0766976,
        800.0
      ],
      [
        41.3696433,
        2.0809462,
        800.0
      ],
      [
        41.3727714,
        2.0840143,
        800.0
      ],
      [
        41.3768282,
        2.0886402,
        800.0
      ],
      [
        41.3769374,
        2.0935272,
        800.0
      ],
      [
        41.3765926,
        2.0984179,
        800.0
      ],
      [
        41.3760647,
        2.1059363,
        800.0
      ],
      [
        41.3766761,
        2.1108868,
        800.0
      ],
      [
        41.3807263,
        2.1148697,
        800.0
      ],
      [
        41.3842711,
        2.1144492,
        800.0
      ],
      [
        41.3859123,
        2.1184709,
        800.0
      ],
      [
        41.3867075,
        2.1216148,
        800.0
      ],
      [
        41.3879548,
        2.1265109,
        800.0
      ],
      [
        41.3893363,
        2.1319742,
        800.0
      ],
      [
        41.3904953,
        2.136533,
        800.0
      ],
      [
        41.3921793,
        2.1432109,
        800.0
      ]
    ],
    "stops": [
      {
        "id": "3395374740",
        "name": "Bon Viatge",
        "lat": 41.3645583,
        "lon": 2.0587489,
        "role": "stop"
      },
      {
        "id": "3395374337",
        "name": "Fontsanta | Fatjó",
        "lat": 41.3603118,
        "lon": 2.0622037,
        "role": "stop"
      },
      {
        "id": "3395374241",
        "name": "Les Aigües",
        "lat": 41.356649,
        "lon": 2.0660545,
        "role": "stop"
      },
      {
        "id": "3395374293",
        "name": "Cornellà Centre",
        "lat": 41.3576735,
        "lon": 2.0702144,
        "role": "stop"
      },
      {
        "id": "3395374545",
        "name": "Ignasi Iglésias",
        "lat": 41.3612389,
        "lon": 2.0726917,
        "role": "stop"
      },
      {
        "id": "3395374759",
        "name": "El Pedró",
        "lat": 41.3653162,
        "lon": 2.0766976,
        "role": "stop"
      },
      {
        "id": "3395374201",
        "name": "Montesa",
        "lat": 41.3696433,
        "lon": 2.0809462,
        "role": "stop"
      },
      {
        "id": "3395374195",
        "name": "La Sardana",
        "lat": 41.3727714,
        "lon": 2.0840143,
        "role": "stop"
      },
      {
        "id": "3395374209",
        "name": "Pont d'Esplugues",
        "lat": 41.3768282,
        "lon": 2.0886402,
        "role": "stop"
      },
      {
        "id": "3395373887",
        "name": "Can Clota",
        "lat": 41.3769374,
        "lon": 2.0935272,
        "role": "stop"
      },
      {
        "id": "3395373885",
        "name": "Ca n'Oliveres",
        "lat": 41.3765926,
        "lon": 2.0984179,
        "role": "stop"
      },
      {
        "id": "3395373889",
        "name": "Can Rigal",
        "lat": 41.3760647,
        "lon": 2.1059363,
        "role": "stop"
      },
      {
        "id": "3395373892",
        "name": "Ernest Lluch",
        "lat": 41.3766761,
        "lon": 2.1108868,
        "role": "stop"
      },
      {
        "id": "3395373883",
        "name": "Avinguda de Xile",
        "lat": 41.3807263,
        "lon": 2.1148697,
        "role": "stop"
      },
      {
        "id": "3395374212",
        "name": "Zona Universitària",
        "lat": 41.3842711,
        "lon": 2.1144492,
        "role": "stop"
      },
      {
        "id": "3395374205",
        "name": "Palau Reial",
        "lat": 41.3859123,
        "lon": 2.1184709,
        "role": "stop"
      },
      {
        "id": "3395374207",
        "name": "Pius XII",
        "lat": 41.3867075,
        "lon": 2.1216148,
        "role": "stop"
      },
      {
        "id": "3395374199",
        "name": "Maria Cristina",
        "lat": 41.3879548,
        "lon": 2.1265109,
        "role": "stop"
      },
      {
        "id": "3395374203",
        "name": "Numància",
        "lat": 41.3893363,
        "lon": 2.1319742,
        "role": "stop"
      },
      {
        "id": "3395374197",
        "name": "L'Illa",
        "lat": 41.3904953,
        "lon": 2.136533,
        "role": "stop"
      },
      {
        "id": "3395374193",
        "name": "Francesc Macià",
        "lat": 41.3921793,
        "lon": 2.1432109,
        "role": "stop"
      }
    ]
  },
  {
    "id": "4666996",
    "name": "T1: Francesc Macià => Bon Viatge",
    "ref": "T1",
    "description": "Ruta real de tram urbano gestionada por TRAM.",
    "distanceKm": 9.45,
    "elevationGain": 0.0,
    "elevationLoss": 0.0,
    "estWalkingSeconds": 7560,
    "estRunningSeconds": 3092,
    "stopsCount": 21,
    "coords": [
      [
        41.3922404,
        2.143184,
        800.0
      ],
      [
        41.3905232,
        2.136522,
        800.0
      ],
      [
        41.3893636,
        2.1319611,
        800.0
      ],
      [
        41.3879818,
        2.1264998,
        800.0
      ],
      [
        41.3867337,
        2.1216038,
        800.0
      ],
      [
        41.3859396,
        2.1184588,
        800.0
      ],
      [
        41.3842627,
        2.1144128,
        800.0
      ],
      [
        41.3807557,
        2.1147979,
        800.0
      ],
      [
        41.3766921,
        2.110775,
        800.0
      ],
      [
        41.3760954,
        2.1059379,
        800.0
      ],
      [
        41.3766231,
        2.0984216,
        800.0
      ],
      [
        41.376968,
        2.0935314,
        800.0
      ],
      [
        41.3768565,
        2.0886106,
        800.0
      ],
      [
        41.3727926,
        2.0839757,
        800.0
      ],
      [
        41.3696649,
        2.0809079,
        800.0
      ],
      [
        41.3653376,
        2.0766592,
        800.0
      ],
      [
        41.3612568,
        2.0726587,
        800.0
      ],
      [
        41.3576948,
        2.0701757,
        800.0
      ],
      [
        41.3566695,
        2.0660938,
        800.0
      ],
      [
        41.3603346,
        2.0622407,
        800.0
      ],
      [
        41.3647014,
        2.0589055,
        800.0
      ]
    ],
    "stops": [
      {
        "id": "3395374194",
        "name": "Francesc Macià",
        "lat": 41.3922404,
        "lon": 2.143184,
        "role": "stop"
      },
      {
        "id": "3395374198",
        "name": "L'Illa",
        "lat": 41.3905232,
        "lon": 2.136522,
        "role": "stop"
      },
      {
        "id": "3395374204",
        "name": "Numància",
        "lat": 41.3893636,
        "lon": 2.1319611,
        "role": "stop"
      },
      {
        "id": "3395374200",
        "name": "Maria Cristina",
        "lat": 41.3879818,
        "lon": 2.1264998,
        "role": "stop"
      },
      {
        "id": "3395374208",
        "name": "Pius XII",
        "lat": 41.3867337,
        "lon": 2.1216038,
        "role": "stop"
      },
      {
        "id": "3395374206",
        "name": "Palau Reial",
        "lat": 41.3859396,
        "lon": 2.1184588,
        "role": "stop"
      },
      {
        "id": "3395374211",
        "name": "Zona Universitària",
        "lat": 41.3842627,
        "lon": 2.1144128,
        "role": "stop"
      },
      {
        "id": "3395373884",
        "name": "Avinguda de Xile",
        "lat": 41.3807557,
        "lon": 2.1147979,
        "role": "stop"
      },
      {
        "id": "3395373891",
        "name": "Ernest Lluch",
        "lat": 41.3766921,
        "lon": 2.110775,
        "role": "stop"
      },
      {
        "id": "3395373890",
        "name": "Can Rigal",
        "lat": 41.3760954,
        "lon": 2.1059379,
        "role": "stop"
      },
      {
        "id": "3395373886",
        "name": "Ca n'Oliveres",
        "lat": 41.3766231,
        "lon": 2.0984216,
        "role": "stop"
      },
      {
        "id": "3395373888",
        "name": "Can Clota",
        "lat": 41.376968,
        "lon": 2.0935314,
        "role": "stop"
      },
      {
        "id": "3395374210",
        "name": "Pont d'Esplugues",
        "lat": 41.3768565,
        "lon": 2.0886106,
        "role": "stop"
      },
      {
        "id": "3395374196",
        "name": "La Sardana",
        "lat": 41.3727926,
        "lon": 2.0839757,
        "role": "stop"
      },
      {
        "id": "3395374202",
        "name": "Montesa",
        "lat": 41.3696649,
        "lon": 2.0809079,
        "role": "stop"
      },
      {
        "id": "3395374761",
        "name": "El Pedró",
        "lat": 41.3653376,
        "lon": 2.0766592,
        "role": "stop"
      },
      {
        "id": "3395374547",
        "name": "Ignasi Iglésias",
        "lat": 41.3612568,
        "lon": 2.0726587,
        "role": "stop"
      },
      {
        "id": "3395374294",
        "name": "Cornellà Centre",
        "lat": 41.3576948,
        "lon": 2.0701757,
        "role": "stop"
      },
      {
        "id": "3395374243",
        "name": "Les Aigües",
        "lat": 41.3566695,
        "lon": 2.0660938,
        "role": "stop"
      },
      {
        "id": "3395374338",
        "name": "Fontsanta | Fatjó",
        "lat": 41.3603346,
        "lon": 2.0622407,
        "role": "stop"
      },
      {
        "id": "3395374743",
        "name": "Bon Viatge",
        "lat": 41.3647014,
        "lon": 2.0589055,
        "role": "stop"
      }
    ]
  }
]