[
  {
    "id": "36937",
    "name": "T1 - Plaza Nueva - Luis Morales",
    "ref": "T1",
    "description": "Ruta real de tram urbano gestionada por Tussam.",
    "distanceKm": 2.68,
    "elevationGain": 0.0,
    "elevationLoss": 0.0,
    "estWalkingSeconds": 2140,
    "estRunningSeconds": 875,
    "stopsCount": 7,
    "coords": [
      [
        37.3847098,
        -5.9938546,
        800.0
      ],
      [
        37.3821089,
        -5.9924242,
        800.0
      ],
      [
        37.3808083,
        -5.9870138,
        800.0
      ],
      [
        37.3786608,
        -5.9794169,
        800.0
      ],
      [
        37.3795616,
        -5.9742754,
        800.0
      ],
      [
        37.3822425,
        -5.9733997,
        800.0
      ],
      [
        37.3855544,
        -5.9725804,
        800.0
      ]
    ],
    "stops": [
      {
        "id": "244054192",
        "name": "Archivo de Indias",
        "lat": 37.3847098,
        "lon": -5.9938546,
        "role": "stop"
      },
      {
        "id": "201316917",
        "name": "Puerta Jerez",
        "lat": 37.3821089,
        "lon": -5.9924242,
        "role": "stop"
      },
      {
        "id": "244053779",
        "name": "Prado San Sebastián",
        "lat": 37.3808083,
        "lon": -5.9870138,
        "role": "stop"
      },
      {
        "id": "1254108418",
        "name": "San Bernardo",
        "lat": 37.3786608,
        "lon": -5.9794169,
        "role": "stop"
      },
      {
        "id": "12086889997",
        "name": "San Francisco Javier",
        "lat": 37.3795616,
        "lon": -5.9742754,
        "role": "stop"
      },
      {
        "id": "12086889994",
        "name": "Eduardo Dato",
        "lat": 37.3822425,
        "lon": -5.9733997,
        "role": "stop"
      },
      {
        "id": "12644375718",
        "name": "Luis Morales",
        "lat": 37.3855544,
        "lon": -5.9725804,
        "role": "stop"
      }
    ]
  },
  {
    "id": "20188918",
    "name": "T1 - Luis Morales - Plaza Nueva",
    "ref": "T1",
    "description": "Ruta real de tram urbano gestionada por Tussam.",
    "distanceKm": 2.67,
    "elevationGain": 0.0,
    "elevationLoss": 0.0,
    "estWalkingSeconds": 2132,
    "estRunningSeconds": 872,
    "stopsCount": 7,
    "coords": [
      [
        37.3855591,
        -5.9726249,
        800.0
      ],
      [
        37.3822526,
        -5.9734427,
        800.0
      ],
      [
        37.379574,
        -5.9743151,
        800.0
      ],
      [
        37.378623,
        -5.9791808,
        800.0
      ],
      [
        37.3808442,
        -5.9870015,
        800.0
      ],
      [
        37.3821731,
        -5.9924001,
        800.0
      ],
      [
        37.3847175,
        -5.993765,
        800.0
      ]
    ],
    "stops": [
      {
        "id": "12644375713",
        "name": "Luis Morales",
        "lat": 37.3855591,
        "lon": -5.9726249,
        "role": "stop"
      },
      {
        "id": "12086889982",
        "name": "Eduardo Dato",
        "lat": 37.3822526,
        "lon": -5.9734427,
        "role": "stop"
      },
      {
        "id": "12086889996",
        "name": "San Francisco Javier",
        "lat": 37.379574,
        "lon": -5.9743151,
        "role": "stop"
      },
      {
        "id": "2310802489",
        "name": "San Bernardo",
        "lat": 37.378623,
        "lon": -5.9791808,
        "role": "stop"
      },
      {
        "id": "2310802474",
        "name": "Prado San Sebastián",
        "lat": 37.3808442,
        "lon": -5.9870015,
        "role": "stop"
      },
      {
        "id": "2310802483",
        "name": "Puerta Jerez",
        "lat": 37.3821731,
        "lon": -5.9924001,
        "role": "stop"
      },
      {
        "id": "2310802453",
        "name": "Archivo de Indias",
        "lat": 37.3847175,
        "lon": -5.993765,
        "role": "stop"
      }
    ]
  }
]