[
  {
    "id": "2658866",
    "name": "Tram L1: Mago de Oz → Avenida de la Academia",
    "ref": "L1",
    "description": "Ruta real de tram urbano gestionada por Sociedad de Economía Mixta Los Tranvías de Zaragoza.",
    "distanceKm": 11.64,
    "elevationGain": 0.0,
    "elevationLoss": 0.0,
    "estWalkingSeconds": 9308,
    "estRunningSeconds": 3807,
    "stopsCount": 25,
    "coords": [
      [
        41.6243593,
        -0.9366557,
        800.0
      ],
      [
        41.6229235,
        -0.9303443,
        800.0
      ],
      [
        41.6207568,
        -0.9240574,
        800.0
      ],
      [
        41.6225297,
        -0.9185485,
        800.0
      ],
      [
        41.6262259,
        -0.9096675,
        800.0
      ],
      [
        41.631639,
        -0.9054535,
        800.0
      ],
      [
        41.6355612,
        -0.9007255,
        800.0
      ],
      [
        41.6379469,
        -0.8975561,
        800.0
      ],
      [
        41.6406962,
        -0.8950034,
        800.0
      ],
      [
        41.643867,
        -0.8920634,
        800.0
      ],
      [
        41.6461256,
        -0.88774,
        800.0
      ],
      [
        41.6480593,
        -0.8849806,
        800.0
      ],
      [
        41.6513457,
        -0.8816769,
        800.0
      ],
      [
        41.6552079,
        -0.8838995,
        800.0
      ],
      [
        41.6572514,
        -0.8820476,
        800.0
      ],
      [
        41.6612252,
        -0.8827209,
        800.0
      ],
      [
        41.6630325,
        -0.8836373,
        800.0
      ],
      [
        41.6672884,
        -0.8866036,
        800.0
      ],
      [
        41.6696452,
        -0.8888916,
        800.0
      ],
      [
        41.6748694,
        -0.8892876,
        800.0
      ],
      [
        41.6773203,
        -0.8892587,
        800.0
      ],
      [
        41.6834745,
        -0.8896985,
        800.0
      ],
      [
        41.6868318,
        -0.8841363,
        800.0
      ],
      [
        41.6867827,
        -0.8786162,
        800.0
      ],
      [
        41.6871692,
        -0.8708253,
        800.0
      ]
    ],
    "stops": [
      {
        "id": "1240847133",
        "name": "Mago de Oz",
        "lat": 41.6243593,
        "lon": -0.9366557,
        "role": "stop"
      },
      {
        "id": "1240847147",
        "name": "Un americano en París",
        "lat": 41.6229235,
        "lon": -0.9303443,
        "role": "stop"
      },
      {
        "id": "1240847182",
        "name": "La ventana indiscreta",
        "lat": 41.6207568,
        "lon": -0.9240574,
        "role": "stop"
      },
      {
        "id": "1240847175",
        "name": "Los olvidados",
        "lat": 41.6225297,
        "lon": -0.9185485,
        "role": "stop"
      },
      {
        "id": "1240847180",
        "name": "Argualas",
        "lat": 41.6262259,
        "lon": -0.9096675,
        "role": "stop"
      },
      {
        "id": "1112409988",
        "name": "Casablanca",
        "lat": 41.631639,
        "lon": -0.9054535,
        "role": "stop"
      },
      {
        "id": "1240847126",
        "name": "Romareda",
        "lat": 41.6355612,
        "lon": -0.9007255,
        "role": "stop"
      },
      {
        "id": "1240847139",
        "name": "Emperador Carlos V",
        "lat": 41.6379469,
        "lon": -0.8975561,
        "role": "stop"
      },
      {
        "id": "1240847174",
        "name": "Plaza de San Francisco",
        "lat": 41.6406962,
        "lon": -0.8950034,
        "role": "stop"
      },
      {
        "id": "1237218064",
        "name": "Fernando el Católico",
        "lat": 41.643867,
        "lon": -0.8920634,
        "role": "stop"
      },
      {
        "id": "1858621530",
        "name": "Gran Vía",
        "lat": 41.6461256,
        "lon": -0.88774,
        "role": "stop"
      },
      {
        "id": "1858621478",
        "name": "Plaza Aragón",
        "lat": 41.6480593,
        "lon": -0.8849806,
        "role": "stop"
      },
      {
        "id": "1976513159",
        "name": "Plaza de España",
        "lat": 41.6513457,
        "lon": -0.8816769,
        "role": "stop"
      },
      {
        "id": "245443176",
        "name": "César Augusto",
        "lat": 41.6552079,
        "lon": -0.8838995,
        "role": "stop"
      },
      {
        "id": "2076161401",
        "name": "Plaza del Pilar-Murallas",
        "lat": 41.6572514,
        "lon": -0.8820476,
        "role": "stop"
      },
      {
        "id": "2311695953",
        "name": "La Chimenea",
        "lat": 41.6612252,
        "lon": -0.8827209,
        "role": "stop"
      },
      {
        "id": "1858821858",
        "name": "María Montessori",
        "lat": 41.6630325,
        "lon": -0.8836373,
        "role": "stop"
      },
      {
        "id": "2081717746",
        "name": "León Felipe",
        "lat": 41.6672884,
        "lon": -0.8866036,
        "role": "stop"
      },
      {
        "id": "1596999997",
        "name": "Pablo Neruda",
        "lat": 41.6696452,
        "lon": -0.8888916,
        "role": "stop"
      },
      {
        "id": "2081717747",
        "name": "Adolfo Aznar",
        "lat": 41.6748694,
        "lon": -0.8892876,
        "role": "stop"
      },
      {
        "id": "2081717748",
        "name": "García Abril",
        "lat": 41.6773203,
        "lon": -0.8892587,
        "role": "stop"
      },
      {
        "id": "2081717742",
        "name": "Campus Río Ebro",
        "lat": 41.6834745,
        "lon": -0.8896985,
        "role": "stop"
      },
      {
        "id": "2035154586",
        "name": "Juslibol",
        "lat": 41.6868318,
        "lon": -0.8841363,
        "role": "stop"
      },
      {
        "id": "2306153948",
        "name": "Parque Goya",
        "lat": 41.6867827,
        "lon": -0.8786162,
        "role": "stop"
      },
      {
        "id": "2311695950",
        "name": "Avenida de la Academia",
        "lat": 41.6871692,
        "lon": -0.8708253,
        "role": "stop"
      }
    ]
  },
  {
    "id": "2658867",
    "name": "Tram L1: Avenida de la Academia → Mago de Oz",
    "ref": "L1",
    "description": "Ruta real de tram urbano gestionada por Sociedad de Economía Mixta Los Tranvías de Zaragoza.",
    "distanceKm": 11.67,
    "elevationGain": 0.0,
    "elevationLoss": 0.0,
    "estWalkingSeconds": 9338,
    "estRunningSeconds": 3820,
    "stopsCount": 25,
    "coords": [
      [
        41.6871743,
        -0.8709204,
        800.0
      ],
      [
        41.6868151,
        -0.8786151,
        800.0
      ],
      [
        41.686867,
        -0.884801,
        800.0
      ],
      [
        41.6834741,
        -0.889741,
        800.0
      ],
      [
        41.6775592,
        -0.8907524,
        800.0
      ],
      [
        41.674879,
        -0.89078,
        800.0
      ],
      [
        41.6697116,
        -0.8905882,
        800.0
      ],
      [
        41.6665929,
        -0.8874632,
        800.0
      ],
      [
        41.6625493,
        -0.8846031,
        800.0
      ],
      [
        41.6611909,
        -0.8827265,
        800.0
      ],
      [
        41.6572889,
        -0.8821241,
        800.0
      ],
      [
        41.6552263,
        -0.8839433,
        800.0
      ],
      [
        41.6513859,
        -0.8817463,
        800.0
      ],
      [
        41.648137,
        -0.885123,
        800.0
      ],
      [
        41.6463137,
        -0.8878283,
        800.0
      ],
      [
        41.6439085,
        -0.8923046,
        800.0
      ],
      [
        41.640788,
        -0.8951919,
        800.0
      ],
      [
        41.6380253,
        -0.8977606,
        800.0
      ],
      [
        41.6355863,
        -0.9007916,
        800.0
      ],
      [
        41.6316523,
        -0.9054869,
        800.0
      ],
      [
        41.6262577,
        -0.9097399,
        800.0
      ],
      [
        41.6226553,
        -0.9187573,
        800.0
      ],
      [
        41.6212908,
        -0.923472,
        800.0
      ],
      [
        41.6235714,
        -0.9299757,
        800.0
      ],
      [
        41.6250322,
        -0.9363947,
        800.0
      ]
    ],
    "stops": [
      {
        "id": "2311695951",
        "name": "Avenida de la Academia",
        "lat": 41.6871743,
        "lon": -0.8709204,
        "role": "stop"
      },
      {
        "id": "2306153949",
        "name": "Parque Goya",
        "lat": 41.6868151,
        "lon": -0.8786151,
        "role": "stop"
      },
      {
        "id": "2035154593",
        "name": "Juslibol",
        "lat": 41.686867,
        "lon": -0.884801,
        "role": "stop"
      },
      {
        "id": "2081717743",
        "name": "Campus Río Ebro",
        "lat": 41.6834741,
        "lon": -0.889741,
        "role": "stop"
      },
      {
        "id": "2311695955",
        "name": "Margarita Xirgu",
        "lat": 41.6775592,
        "lon": -0.8907524,
        "role": "stop"
      },
      {
        "id": "2311695954",
        "name": "Legaz Lacambra",
        "lat": 41.674879,
        "lon": -0.89078,
        "role": "stop"
      },
      {
        "id": "34756870",
        "name": "Clara Campoamor",
        "lat": 41.6697116,
        "lon": -0.8905882,
        "role": "stop"
      },
      {
        "id": "2076138806",
        "name": "Rosalía de Castro",
        "lat": 41.6665929,
        "lon": -0.8874632,
        "role": "stop"
      },
      {
        "id": "2311695956",
        "name": "Martínez Soria",
        "lat": 41.6625493,
        "lon": -0.8846031,
        "role": "stop"
      },
      {
        "id": "2311695952",
        "name": "La Chimenea",
        "lat": 41.6611909,
        "lon": -0.8827265,
        "role": "stop"
      },
      {
        "id": "2076161409",
        "name": "Plaza del Pilar-Murallas",
        "lat": 41.6572889,
        "lon": -0.8821241,
        "role": "stop"
      },
      {
        "id": "2081286497",
        "name": "César Augusto",
        "lat": 41.6552263,
        "lon": -0.8839433,
        "role": "stop"
      },
      {
        "id": "1976513160",
        "name": "Plaza de España",
        "lat": 41.6513859,
        "lon": -0.8817463,
        "role": "stop"
      },
      {
        "id": "1858621489",
        "name": "Plaza Aragón",
        "lat": 41.648137,
        "lon": -0.885123,
        "role": "stop"
      },
      {
        "id": "1237218086",
        "name": "Gran Vía",
        "lat": 41.6463137,
        "lon": -0.8878283,
        "role": "stop"
      },
      {
        "id": "1237218041",
        "name": "Fernando el Católico",
        "lat": 41.6439085,
        "lon": -0.8923046,
        "role": "stop"
      },
      {
        "id": "1240847159",
        "name": "Plaza de San Francisco",
        "lat": 41.640788,
        "lon": -0.8951919,
        "role": "stop"
      },
      {
        "id": "1240847118",
        "name": "Emperador Carlos V",
        "lat": 41.6380253,
        "lon": -0.8977606,
        "role": "stop"
      },
      {
        "id": "1240847193",
        "name": "Romareda",
        "lat": 41.6355863,
        "lon": -0.9007916,
        "role": "stop"
      },
      {
        "id": "1112410078",
        "name": "Casablanca",
        "lat": 41.6316523,
        "lon": -0.9054869,
        "role": "stop"
      },
      {
        "id": "1112369213",
        "name": "Argualas",
        "lat": 41.6262577,
        "lon": -0.9097399,
        "role": "stop"
      },
      {
        "id": "1240847161",
        "name": "Los olvidados",
        "lat": 41.6226553,
        "lon": -0.9187573,
        "role": "stop"
      },
      {
        "id": "1153069152",
        "name": "Los pájaros",
        "lat": 41.6212908,
        "lon": -0.923472,
        "role": "stop"
      },
      {
        "id": "1240847164",
        "name": "Cantando bajo la lluvia",
        "lat": 41.6235714,
        "lon": -0.9299757,
        "role": "stop"
      },
      {
        "id": "1240847113",
        "name": "Mago de Oz",
        "lat": 41.6250322,
        "lon": -0.9363947,
        "role": "stop"
      }
    ]
  }
]