{
  "id": "102767",
  "name": "Northern line: Edgware → Charing Cross → Battersea Power Station",
  "ref": "Northern",
  "description": "Ruta real de metro urbano gestionada por Transport for London.",
  "distanceKm": 21.97,
  "elevationGain": 0.0,
  "elevationLoss": 0.0,
  "estWalkingSeconds": 17578,
  "estRunningSeconds": 7191,
  "stopsCount": 22,
  "coords": [
    [
      51.6134349,
      -0.2742546,
      800.0
    ],
    [
      51.6028449,
      -0.2639522,
      800.0
    ],
    [
      51.5953678,
      -0.2497551,
      800.0
    ],
    [
      51.5827415,
      -0.2256283,
      800.0
    ],
    [
      51.5765698,
      -0.2132718,
      800.0
    ],
    [
      51.5723861,
      -0.1938723,
      800.0
    ],
    [
      51.5566155,
      -0.1782918,
      800.0
    ],
    [
      51.5503687,
      -0.164574,
      800.0
    ],
    [
      51.5442547,
      -0.1534021,
      800.0
    ],
    [
      51.5395587,
      -0.1430587,
      800.0
    ],
    [
      51.5344326,
      -0.1383723,
      800.0
    ],
    [
      51.5282784,
      -0.1340079,
      800.0
    ],
    [
      51.5246057,
      -0.1377493,
      800.0
    ],
    [
      51.5205525,
      -0.1342306,
      800.0
    ],
    [
      51.5153108,
      -0.1298795,
      800.0
    ],
    [
      51.5119071,
      -0.1283486,
      800.0
    ],
    [
      51.508528,
      -0.1249331,
      800.0
    ],
    [
      51.5075217,
      -0.1218816,
      800.0
    ],
    [
      51.5035706,
      -0.1143104,
      800.0
    ],
    [
      51.487594,
      -0.1063789,
      800.0
    ],
    [
      51.4802358,
      -0.1304351,
      800.0
    ],
    [
      51.4790947,
      -0.1438791,
      800.0
    ]
  ],
  "stops": [
    {
      "id": "5355174726",
      "name": "Edgware",
      "lat": 51.6134349,
      "lon": -0.2742546,
      "role": "stop_entry_only"
    },
    {
      "id": "1825289792",
      "name": "Burnt Oak",
      "lat": 51.6028449,
      "lon": -0.2639522,
      "role": "stop"
    },
    {
      "id": "1746755372",
      "name": "Colindale",
      "lat": 51.5953678,
      "lon": -0.2497551,
      "role": "stop"
    },
    {
      "id": "8618989638",
      "name": "Hendon Central",
      "lat": 51.5827415,
      "lon": -0.2256283,
      "role": "stop"
    },
    {
      "id": "10573700575",
      "name": "Brent Cross",
      "lat": 51.5765698,
      "lon": -0.2132718,
      "role": "stop"
    },
    {
      "id": "5182456577",
      "name": "Golders Green",
      "lat": 51.5723861,
      "lon": -0.1938723,
      "role": "stop"
    },
    {
      "id": "70769747",
      "name": "Hampstead",
      "lat": 51.5566155,
      "lon": -0.1782918,
      "role": "stop"
    },
    {
      "id": "5473343554",
      "name": "Belsize Park",
      "lat": 51.5503687,
      "lon": -0.164574,
      "role": "stop"
    },
    {
      "id": "1259856278",
      "name": "Chalk Farm",
      "lat": 51.5442547,
      "lon": -0.1534021,
      "role": "stop"
    },
    {
      "id": "1337866094",
      "name": "Camden Town",
      "lat": 51.5395587,
      "lon": -0.1430587,
      "role": "stop"
    },
    {
      "id": "1794145802",
      "name": "Mornington Crescent",
      "lat": 51.5344326,
      "lon": -0.1383723,
      "role": "stop"
    },
    {
      "id": "1263067940",
      "name": "Euston",
      "lat": 51.5282784,
      "lon": -0.1340079,
      "role": "stop"
    },
    {
      "id": "27555804",
      "name": "Warren Street",
      "lat": 51.5246057,
      "lon": -0.1377493,
      "role": "stop"
    },
    {
      "id": "1825191031",
      "name": "Goodge Street",
      "lat": 51.5205525,
      "lon": -0.1342306,
      "role": "stop"
    },
    {
      "id": "70833764",
      "name": "Tottenham Court Road",
      "lat": 51.5153108,
      "lon": -0.1298795,
      "role": "stop"
    },
    {
      "id": "70833777",
      "name": "Leicester Square",
      "lat": 51.5119071,
      "lon": -0.1283486,
      "role": "stop"
    },
    {
      "id": "1778602806",
      "name": "Charing Cross",
      "lat": 51.508528,
      "lon": -0.1249331,
      "role": "stop"
    },
    {
      "id": "5178320458",
      "name": "Embankment",
      "lat": 51.5075217,
      "lon": -0.1218816,
      "role": "stop"
    },
    {
      "id": "1802760139",
      "name": "Waterloo",
      "lat": 51.5035706,
      "lon": -0.1143104,
      "role": "stop"
    },
    {
      "id": "1996939224",
      "name": "Kennington",
      "lat": 51.487594,
      "lon": -0.1063789,
      "role": "stop"
    },
    {
      "id": "7633092779",
      "name": "Nine Elms",
      "lat": 51.4802358,
      "lon": -0.1304351,
      "role": "stop"
    },
    {
      "id": "9113091955",
      "name": "Battersea Power Station",
      "lat": 51.4790947,
      "lon": -0.1438791,
      "role": "stop_exit_only"
    }
  ]
}