{
  "id": "102783",
  "name": "Metropolitan line: Aldgate → Amersham",
  "ref": "Metropolitan",
  "description": "Ruta real de metro urbano gestionada por Transport for London.",
  "distanceKm": 43.31,
  "elevationGain": 0.0,
  "elevationLoss": 0.0,
  "estWalkingSeconds": 34645,
  "estRunningSeconds": 14173,
  "stopsCount": 23,
  "coords": [
    [
      51.5142427,
      -0.0757317,
      800.0
    ],
    [
      51.5171842,
      -0.0825554,
      800.0
    ],
    [
      51.5187071,
      -0.0908535,
      800.0
    ],
    [
      51.5202026,
      -0.0987297,
      800.0
    ],
    [
      51.5208186,
      -0.1052548,
      800.0
    ],
    [
      51.5295915,
      -0.124545,
      800.0
    ],
    [
      51.5258278,
      -0.1351367,
      800.0
    ],
    [
      51.5237975,
      -0.1438686,
      800.0
    ],
    [
      51.5233342,
      -0.1573755,
      800.0
    ],
    [
      51.5471468,
      -0.1808508,
      800.0
    ],
    [
      51.5638718,
      -0.2810213,
      800.0
    ],
    [
      51.5724483,
      -0.2966849,
      800.0
    ],
    [
      51.5784328,
      -0.3184599,
      800.0
    ],
    [
      51.5793792,
      -0.337178,
      800.0
    ],
    [
      51.5853743,
      -0.3637593,
      800.0
    ],
    [
      51.5928027,
      -0.3810117,
      800.0
    ],
    [
      51.600477,
      -0.4092029,
      800.0
    ],
    [
      51.611152,
      -0.4238375,
      800.0
    ],
    [
      51.6297645,
      -0.4322042,
      800.0
    ],
    [
      51.6402049,
      -0.4735861,
      800.0
    ],
    [
      51.6541625,
      -0.5183252,
      800.0
    ],
    [
      51.6681,
      -0.561223,
      800.0
    ],
    [
      51.674073,
      -0.6073712,
      800.0
    ]
  ],
  "stops": [
    {
      "id": "3076573907",
      "name": "Aldgate",
      "lat": 51.5142427,
      "lon": -0.0757317,
      "role": "stop_entry_only"
    },
    {
      "id": "3076573932",
      "name": "Liverpool Street",
      "lat": 51.5171842,
      "lon": -0.0825554,
      "role": "stop"
    },
    {
      "id": "1725278986",
      "name": "Moorgate",
      "lat": 51.5187071,
      "lon": -0.0908535,
      "role": "stop"
    },
    {
      "id": "1725278953",
      "name": "Barbican",
      "lat": 51.5202026,
      "lon": -0.0987297,
      "role": "stop"
    },
    {
      "id": "1270856914",
      "name": "Farringdon",
      "lat": 51.5208186,
      "lon": -0.1052548,
      "role": "stop"
    },
    {
      "id": "1577814287",
      "name": "King's Cross St Pancras",
      "lat": 51.5295915,
      "lon": -0.124545,
      "role": "stop"
    },
    {
      "id": "3163857732",
      "name": "Euston Square",
      "lat": 51.5258278,
      "lon": -0.1351367,
      "role": "stop"
    },
    {
      "id": "1259893032",
      "name": "Great Portland Street",
      "lat": 51.5237975,
      "lon": -0.1438686,
      "role": "stop"
    },
    {
      "id": "5183394292",
      "name": "Baker Street",
      "lat": 51.5233342,
      "lon": -0.1573755,
      "role": "stop"
    },
    {
      "id": "1692040043",
      "name": "Finchley Road",
      "lat": 51.5471468,
      "lon": -0.1808508,
      "role": "stop"
    },
    {
      "id": "2907810196",
      "name": "Wembley Park",
      "lat": 51.5638718,
      "lon": -0.2810213,
      "role": "stop"
    },
    {
      "id": "5183760372",
      "name": "Preston Road",
      "lat": 51.5724483,
      "lon": -0.2966849,
      "role": "stop"
    },
    {
      "id": "1699943608",
      "name": "Northwick Park",
      "lat": 51.5784328,
      "lon": -0.3184599,
      "role": "stop"
    },
    {
      "id": "1699943749",
      "name": "Harrow-on-the-Hill",
      "lat": 51.5793792,
      "lon": -0.337178,
      "role": "stop"
    },
    {
      "id": "1746713220",
      "name": "North Harrow",
      "lat": 51.5853743,
      "lon": -0.3637593,
      "role": "stop"
    },
    {
      "id": "1746713377",
      "name": "Pinner",
      "lat": 51.5928027,
      "lon": -0.3810117,
      "role": "stop"
    },
    {
      "id": "1746713624",
      "name": "Northwood Hills",
      "lat": 51.600477,
      "lon": -0.4092029,
      "role": "stop"
    },
    {
      "id": "1746713875",
      "name": "Northwood",
      "lat": 51.611152,
      "lon": -0.4238375,
      "role": "stop"
    },
    {
      "id": "1746714256",
      "name": "Moor Park",
      "lat": 51.6297645,
      "lon": -0.4322042,
      "role": "stop"
    },
    {
      "id": "21139874",
      "name": "Rickmansworth",
      "lat": 51.6402049,
      "lon": -0.4735861,
      "role": "stop"
    },
    {
      "id": "3183062876",
      "name": "Chorleywood",
      "lat": 51.6541625,
      "lon": -0.5183252,
      "role": "stop"
    },
    {
      "id": "6763108885",
      "name": "Chalfont & Latimer",
      "lat": 51.6681,
      "lon": -0.561223,
      "role": "stop"
    },
    {
      "id": "1082713562",
      "name": "Amersham",
      "lat": 51.674073,
      "lon": -0.6073712,
      "role": "stop_exit_only"
    }
  ]
}