{
  "id": "123782",
  "name": "Ligne 9 : Pont de Sèvres → Mairie de Montreuil",
  "ref": "9",
  "description": "Ruta real de metro urbano gestionada por RATP.",
  "distanceKm": 19.26,
  "elevationGain": 0.0,
  "elevationLoss": 0.0,
  "estWalkingSeconds": 15406,
  "estRunningSeconds": 6302,
  "stopsCount": 37,
  "coords": [
    [
      48.8295857,
      2.2305763,
      800.0
    ],
    [
      48.8317277,
      2.2373655,
      800.0
    ],
    [
      48.8336468,
      2.2435931,
      800.0
    ],
    [
      48.8377937,
      2.256558,
      800.0
    ],
    [
      48.8430044,
      2.2600472,
      800.0
    ],
    [
      48.8447543,
      2.2614913,
      800.0
    ],
    [
      48.8480616,
      2.2642873,
      800.0
    ],
    [
      48.8525598,
      2.2681802,
      800.0
    ],
    [
      48.8555764,
      2.2702166,
      800.0
    ],
    [
      48.8579754,
      2.274062,
      800.0
    ],
    [
      48.8640672,
      2.278149,
      800.0
    ],
    [
      48.863136,
      2.2862322,
      800.0
    ],
    [
      48.8646131,
      2.2937335,
      800.0
    ],
    [
      48.8648683,
      2.300292,
      800.0
    ],
    [
      48.8681155,
      2.308509,
      800.0
    ],
    [
      48.8722352,
      2.3100505,
      800.0
    ],
    [
      48.8737982,
      2.3152151,
      800.0
    ],
    [
      48.874471,
      2.3217921,
      800.0
    ],
    [
      48.873632,
      2.3283124,
      800.0
    ],
    [
      48.8728788,
      2.3338722,
      800.0
    ],
    [
      48.8721853,
      2.3387937,
      800.0
    ],
    [
      48.8713917,
      2.3435577,
      800.0
    ],
    [
      48.8704306,
      2.3489269,
      800.0
    ],
    [
      48.8693749,
      2.3537241,
      800.0
    ],
    [
      48.8676057,
      2.3627064,
      800.0
    ],
    [
      48.8641124,
      2.3695433,
      800.0
    ],
    [
      48.8610516,
      2.3747956,
      800.0
    ],
    [
      48.8581563,
      2.3798039,
      800.0
    ],
    [
      48.8547441,
      2.3853565,
      800.0
    ],
    [
      48.8525808,
      2.3887914,
      800.0
    ],
    [
      48.8489546,
      2.3961067,
      800.0
    ],
    [
      48.8518166,
      2.4013757,
      800.0
    ],
    [
      48.8527067,
      2.4061147,
      800.0
    ],
    [
      48.8535248,
      2.4106511,
      800.0
    ],
    [
      48.8558145,
      2.4237108,
      800.0
    ],
    [
      48.8579778,
      2.43575,
      800.0
    ],
    [
      48.8625988,
      2.441569,
      800.0
    ]
  ],
  "stops": [
    {
      "id": "11608141162",
      "name": "Pont de Sèvres",
      "lat": 48.8295857,
      "lon": 2.2305763,
      "role": "stop_entry_only"
    },
    {
      "id": "11608141163",
      "name": "Billancourt",
      "lat": 48.8317277,
      "lon": 2.2373655,
      "role": "stop"
    },
    {
      "id": "29588070",
      "name": "Marcel Sembat",
      "lat": 48.8336468,
      "lon": 2.2435931,
      "role": "stop"
    },
    {
      "id": "260767430",
      "name": "Porte de Saint-Cloud",
      "lat": 48.8377937,
      "lon": 2.256558,
      "role": "stop"
    },
    {
      "id": "260767429",
      "name": "Exelmans",
      "lat": 48.8430044,
      "lon": 2.2600472,
      "role": "stop"
    },
    {
      "id": "5226630392",
      "name": "Michel-Ange - Molitor",
      "lat": 48.8447543,
      "lon": 2.2614913,
      "role": "stop"
    },
    {
      "id": "4319966817",
      "name": "Michel-Ange - Auteuil",
      "lat": 48.8480616,
      "lon": 2.2642873,
      "role": "stop"
    },
    {
      "id": "260767426",
      "name": "Jasmin",
      "lat": 48.8525598,
      "lon": 2.2681802,
      "role": "stop"
    },
    {
      "id": "260767425",
      "name": "Ranelagh",
      "lat": 48.8555764,
      "lon": 2.2702166,
      "role": "stop"
    },
    {
      "id": "260767424",
      "name": "La Muette",
      "lat": 48.8579754,
      "lon": 2.274062,
      "role": "stop"
    },
    {
      "id": "260767423",
      "name": "Rue de la Pompe",
      "lat": 48.8640672,
      "lon": 2.278149,
      "role": "stop"
    },
    {
      "id": "9471056770",
      "name": "Trocadéro",
      "lat": 48.863136,
      "lon": 2.2862322,
      "role": "stop"
    },
    {
      "id": "260767422",
      "name": "Iéna",
      "lat": 48.8646131,
      "lon": 2.2937335,
      "role": "stop"
    },
    {
      "id": "260769132",
      "name": "Alma-Marceau",
      "lat": 48.8648683,
      "lon": 2.300292,
      "role": "stop"
    },
    {
      "id": "3703619693",
      "name": "Franklin D. Roosevelt",
      "lat": 48.8681155,
      "lon": 2.308509,
      "role": "stop"
    },
    {
      "id": "260769651",
      "name": "Saint-Philippe du Roule",
      "lat": 48.8722352,
      "lon": 2.3100505,
      "role": "stop"
    },
    {
      "id": "5226630397",
      "name": "Miromesnil",
      "lat": 48.8737982,
      "lon": 2.3152151,
      "role": "stop"
    },
    {
      "id": "256897554",
      "name": "Saint-Augustin",
      "lat": 48.874471,
      "lon": 2.3217921,
      "role": "stop"
    },
    {
      "id": "3703657053",
      "name": "Havre - Caumartin",
      "lat": 48.873632,
      "lon": 2.3283124,
      "role": "stop"
    },
    {
      "id": "5226630395",
      "name": "Chaussée d'Antin - La Fayette",
      "lat": 48.8728788,
      "lon": 2.3338722,
      "role": "stop"
    },
    {
      "id": "8515111474",
      "name": "Richelieu - Drouot",
      "lat": 48.8721853,
      "lon": 2.3387937,
      "role": "stop"
    },
    {
      "id": "11563663318",
      "name": "Grands Boulevards",
      "lat": 48.8713917,
      "lon": 2.3435577,
      "role": "stop"
    },
    {
      "id": "11563663316",
      "name": "Bonne Nouvelle",
      "lat": 48.8704306,
      "lon": 2.3489269,
      "role": "stop"
    },
    {
      "id": "11563663286",
      "name": "Strasbourg - Saint-Denis",
      "lat": 48.8693749,
      "lon": 2.3537241,
      "role": "stop"
    },
    {
      "id": "7068210650",
      "name": "République",
      "lat": 48.8676057,
      "lon": 2.3627064,
      "role": "stop"
    },
    {
      "id": "4318392400",
      "name": "Oberkampf",
      "lat": 48.8641124,
      "lon": 2.3695433,
      "role": "stop"
    },
    {
      "id": "11608141166",
      "name": "Saint-Ambroise",
      "lat": 48.8610516,
      "lon": 2.3747956,
      "role": "stop"
    },
    {
      "id": "11608141167",
      "name": "Voltaire",
      "lat": 48.8581563,
      "lon": 2.3798039,
      "role": "stop"
    },
    {
      "id": "11608141168",
      "name": "Charonne",
      "lat": 48.8547441,
      "lon": 2.3853565,
      "role": "stop"
    },
    {
      "id": "256443205",
      "name": "Rue des Boulets",
      "lat": 48.8525808,
      "lon": 2.3887914,
      "role": "stop"
    },
    {
      "id": "3168226507",
      "name": "Nation",
      "lat": 48.8489546,
      "lon": 2.3961067,
      "role": "stop"
    },
    {
      "id": "11608175569",
      "name": "Buzenval",
      "lat": 48.8518166,
      "lon": 2.4013757,
      "role": "stop"
    },
    {
      "id": "11608175570",
      "name": "Maraîchers",
      "lat": 48.8527067,
      "lon": 2.4061147,
      "role": "stop"
    },
    {
      "id": "11608175571",
      "name": "Porte de Montreuil",
      "lat": 48.8535248,
      "lon": 2.4106511,
      "role": "stop"
    },
    {
      "id": "256442845",
      "name": "Robespierre",
      "lat": 48.8558145,
      "lon": 2.4237108,
      "role": "stop"
    },
    {
      "id": "255160720",
      "name": "Croix de Chavaux",
      "lat": 48.8579778,
      "lon": 2.43575,
      "role": "stop"
    },
    {
      "id": "255160722",
      "name": "Mairie de Montreuil",
      "lat": 48.8625988,
      "lon": 2.441569,
      "role": "stop_exit_only"
    }
  ]
}