{
  "id": "3496730",
  "name": "L1B: Los Rectores - Terra Natura ⇄ UCAM - Los Jerónimos",
  "ref": "L1B",
  "description": "Ruta real de tram urbano gestionada por Tranvía de Murcia.",
  "distanceKm": 3.13,
  "elevationGain": 0.0,
  "elevationLoss": 0.0,
  "estWalkingSeconds": 2503,
  "estRunningSeconds": 1023,
  "stopsCount": 5,
  "coords": [
    [
      38.0125197,
      -1.1620562,
      800.0
    ],
    [
      38.003085,
      -1.1730484,
      800.0
    ],
    [
      38.0017715,
      -1.1770305,
      800.0
    ],
    [
      37.9974124,
      -1.1840724,
      800.0
    ],
    [
      37.9929603,
      -1.186586,
      800.0
    ]
  ],
  "stops": [
    {
      "id": "716874813",
      "name": "Los Rectores - Terra Natura",
      "lat": 38.0125197,
      "lon": -1.1620562,
      "role": "stop"
    },
    {
      "id": "828515495",
      "name": "Guadalupe",
      "lat": 38.003085,
      "lon": -1.1730484,
      "role": "stop"
    },
    {
      "id": "1448817235",
      "name": "Reyes Católicos",
      "lat": 38.0017715,
      "lon": -1.1770305,
      "role": "stop"
    },
    {
      "id": "1448817225",
      "name": "El Portón",
      "lat": 37.9974124,
      "lon": -1.1840724,
      "role": "stop"
    },
    {
      "id": "5356933557",
      "name": "UCAM - Los Jerónimos",
      "lat": 37.9929603,
      "lon": -1.186586,
      "role": "stop"
    }
  ]
}