{
  "id": "8000264",
  "name": "LRT Line 2: Recto to Antipolo",
  "ref": "2",
  "description": "Ruta real de metro urbano gestionada por Light Rail Transit Authority.",
  "distanceKm": 16.02,
  "elevationGain": 0.0,
  "elevationLoss": 0.0,
  "estWalkingSeconds": 12819,
  "estRunningSeconds": 5244,
  "stopsCount": 13,
  "coords": [
    [
      14.603467,
      120.9839839,
      800.0
    ],
    [
      14.6008302,
      120.992486,
      800.0
    ],
    [
      14.6016785,
      121.0050397,
      800.0
    ],
    [
      14.6040032,
      121.0170484,
      800.0
    ],
    [
      14.6105362,
      121.0260677,
      800.0
    ],
    [
      14.6134769,
      121.0340822,
      800.0
    ],
    [
      14.6185794,
      121.0427537,
      800.0
    ],
    [
      14.6228912,
      121.0530406,
      800.0
    ],
    [
      14.6280751,
      121.0651966,
      800.0
    ],
    [
      14.6312599,
      121.073293,
      800.0
    ],
    [
      14.6216934,
      121.0863135,
      800.0
    ],
    [
      14.6204441,
      121.1006319,
      800.0
    ],
    [
      14.6247712,
      121.1213797,
      800.0
    ]
  ],
  "stops": [
    {
      "id": "7577067157",
      "name": "Recto",
      "lat": 14.603467,
      "lon": 120.9839839,
      "role": "stop_entry_only"
    },
    {
      "id": "7577067125",
      "name": "Legarda",
      "lat": 14.6008302,
      "lon": 120.992486,
      "role": "stop"
    },
    {
      "id": "7577067126",
      "name": "Pureza",
      "lat": 14.6016785,
      "lon": 121.0050397,
      "role": "stop"
    },
    {
      "id": "7577067127",
      "name": "V. Mapa",
      "lat": 14.6040032,
      "lon": 121.0170484,
      "role": "stop"
    },
    {
      "id": "7577067150",
      "name": "J. Ruiz",
      "lat": 14.6105362,
      "lon": 121.0260677,
      "role": "stop"
    },
    {
      "id": "7577067149",
      "name": "Gilmore",
      "lat": 14.6134769,
      "lon": 121.0340822,
      "role": "stop"
    },
    {
      "id": "7577067148",
      "name": "Betty Go - Belmonte",
      "lat": 14.6185794,
      "lon": 121.0427537,
      "role": "stop"
    },
    {
      "id": "8347084631",
      "name": "Araneta Center - Cubao",
      "lat": 14.6228912,
      "lon": 121.0530406,
      "role": "stop"
    },
    {
      "id": "5397299816",
      "name": "Anonas",
      "lat": 14.6280751,
      "lon": 121.0651966,
      "role": "stop"
    },
    {
      "id": "5397260361",
      "name": "Katipunan",
      "lat": 14.6312599,
      "lon": 121.073293,
      "role": "stop"
    },
    {
      "id": "5397377397",
      "name": "Santolan",
      "lat": 14.6216934,
      "lon": 121.0863135,
      "role": "stop"
    },
    {
      "id": "5524933065",
      "name": "Marikina-Pasig",
      "lat": 14.6204441,
      "lon": 121.1006319,
      "role": "stop"
    },
    {
      "id": "5524933067",
      "name": "Antipolo",
      "lat": 14.6247712,
      "lon": 121.1213797,
      "role": "stop_exit_only"
    }
  ]
}