{
  "id": "2669208",
  "name": "U3: S+U Warschauer Straße => U Krumme Lanke",
  "ref": "U3",
  "description": "Ruta real de metro urbano gestionada por Berliner Verkehrsbetriebe.",
  "distanceKm": 18.29,
  "elevationGain": 0.0,
  "elevationLoss": 0.0,
  "estWalkingSeconds": 14631,
  "estRunningSeconds": 5985,
  "stopsCount": 25,
  "coords": [
    [
      52.5051277,
      13.4491897,
      800.0
    ],
    [
      52.5008434,
      13.4414409,
      800.0
    ],
    [
      52.4992519,
      13.4276166,
      800.0
    ],
    [
      52.4990137,
      13.4178906,
      800.0
    ],
    [
      52.4984002,
      13.4050918,
      800.0
    ],
    [
      52.4978374,
      13.3899703,
      800.0
    ],
    [
      52.4991271,
      13.3826389,
      800.0
    ],
    [
      52.4995715,
      13.3735305,
      800.0
    ],
    [
      52.5003037,
      13.3609762,
      800.0
    ],
    [
      52.5001131,
      13.3550595,
      800.0
    ],
    [
      52.501939,
      13.3430433,
      800.0
    ],
    [
      52.5001249,
      13.3360701,
      800.0
    ],
    [
      52.4967561,
      13.3316082,
      800.0
    ],
    [
      52.4968756,
      13.3319249,
      800.0
    ],
    [
      52.4939935,
      13.3243336,
      800.0
    ],
    [
      52.4902943,
      13.3146688,
      800.0
    ],
    [
      52.4800449,
      13.3129539,
      800.0
    ],
    [
      52.4729514,
      13.314328,
      800.0
    ],
    [
      52.4670281,
      13.3087573,
      800.0
    ],
    [
      52.4639457,
      13.2951491,
      800.0
    ],
    [
      52.4570906,
      13.2893426,
      800.0
    ],
    [
      52.4509977,
      13.2814971,
      800.0
    ],
    [
      52.4504272,
      13.2687116,
      800.0
    ],
    [
      52.4498256,
      13.2526899,
      800.0
    ],
    [
      52.4430844,
      13.2409997,
      800.0
    ]
  ],
  "stops": [
    {
      "id": "3826367033",
      "name": "Warschauer Straße",
      "lat": 52.5051277,
      "lon": 13.4491897,
      "role": "stop"
    },
    {
      "id": "29787634",
      "name": "Schlesisches Tor",
      "lat": 52.5008434,
      "lon": 13.4414409,
      "role": "stop"
    },
    {
      "id": "29787639",
      "name": "Görlitzer Bahnhof",
      "lat": 52.4992519,
      "lon": 13.4276166,
      "role": "stop"
    },
    {
      "id": "3854468165",
      "name": "Kottbusser Tor",
      "lat": 52.4990137,
      "lon": 13.4178906,
      "role": "stop"
    },
    {
      "id": "31729333",
      "name": "Prinzenstraße",
      "lat": 52.4984002,
      "lon": 13.4050918,
      "role": "stop"
    },
    {
      "id": "321948497",
      "name": "Hallesches Tor",
      "lat": 52.4978374,
      "lon": 13.3899703,
      "role": "stop"
    },
    {
      "id": "1960671962",
      "name": "Möckernbrücke",
      "lat": 52.4991271,
      "lon": 13.3826389,
      "role": "stop"
    },
    {
      "id": "2097661753",
      "name": "Gleisdreieck",
      "lat": 52.4995715,
      "lon": 13.3735305,
      "role": "stop"
    },
    {
      "id": "2098834606",
      "name": "Kurfürstenstraße",
      "lat": 52.5003037,
      "lon": 13.3609762,
      "role": "stop"
    },
    {
      "id": "2098827454",
      "name": "Nollendorfplatz",
      "lat": 52.5001131,
      "lon": 13.3550595,
      "role": "stop"
    },
    {
      "id": "2088402714",
      "name": "Wittenbergplatz",
      "lat": 52.501939,
      "lon": 13.3430433,
      "role": "stop"
    },
    {
      "id": "5162689164",
      "name": "Augsburger Straße",
      "lat": 52.5001249,
      "lon": 13.3360701,
      "role": "stop"
    },
    {
      "id": "5162689160",
      "name": "Spichernstraße",
      "lat": 52.4967561,
      "lon": 13.3316082,
      "role": "stop"
    },
    {
      "id": "6469939362",
      "name": "Spichernstraße",
      "lat": 52.4968756,
      "lon": 13.3319249,
      "role": "platform"
    },
    {
      "id": "5162689159",
      "name": "Hohenzollernplatz",
      "lat": 52.4939935,
      "lon": 13.3243336,
      "role": "stop"
    },
    {
      "id": "5133139702",
      "name": "Fehrbelliner Platz",
      "lat": 52.4902943,
      "lon": 13.3146688,
      "role": "stop"
    },
    {
      "id": "3783145807",
      "name": "Heidelberger Platz",
      "lat": 52.4800449,
      "lon": 13.3129539,
      "role": "stop"
    },
    {
      "id": "5149261180",
      "name": "Rüdesheimer Platz",
      "lat": 52.4729514,
      "lon": 13.314328,
      "role": "stop"
    },
    {
      "id": "3959895204",
      "name": "Breitenbachplatz",
      "lat": 52.4670281,
      "lon": 13.3087573,
      "role": "stop"
    },
    {
      "id": "617183516",
      "name": "Podbielskiallee",
      "lat": 52.4639457,
      "lon": 13.2951491,
      "role": "stop"
    },
    {
      "id": "1262255697",
      "name": "Dahlem-Dorf",
      "lat": 52.4570906,
      "lon": 13.2893426,
      "role": "stop"
    },
    {
      "id": "3955368094",
      "name": "Freie Universität (Thielplatz)",
      "lat": 52.4509977,
      "lon": 13.2814971,
      "role": "stop"
    },
    {
      "id": "617174560",
      "name": "Oskar-Helene-Heim",
      "lat": 52.4504272,
      "lon": 13.2687116,
      "role": "stop"
    },
    {
      "id": "3955368087",
      "name": "Onkel Toms Hütte",
      "lat": 52.4498256,
      "lon": 13.2526899,
      "role": "stop"
    },
    {
      "id": "3872477457",
      "name": "Krumme Lanke",
      "lat": 52.4430844,
      "lon": 13.2409997,
      "role": "stop"
    }
  ]
}