{
  "id": "2097938",
  "name": "L01: Gamonal → Avda. Arlanzón",
  "ref": "L01",
  "description": "Ruta real de bus urbano gestionada por Servicio Municipalizado de Movilidad y Transportes.",
  "distanceKm": 3.34,
  "elevationGain": 0.0,
  "elevationLoss": 0.0,
  "estWalkingSeconds": 2674,
  "estRunningSeconds": 1094,
  "stopsCount": 22,
  "coords": [
    [
      42.354799,
      -3.6644021,
      800.0
    ],
    [
      42.3548702,
      -3.6644386,
      800.0
    ],
    [
      42.3540894,
      -3.6669311,
      800.0
    ],
    [
      42.354131,
      -3.6669543,
      800.0
    ],
    [
      42.352825,
      -3.67002,
      800.0
    ],
    [
      42.3528595,
      -3.670048,
      800.0
    ],
    [
      42.3518821,
      -3.6717339,
      800.0
    ],
    [
      42.3519112,
      -3.6717565,
      800.0
    ],
    [
      42.3507154,
      -3.6738537,
      800.0
    ],
    [
      42.3507444,
      -3.6738763,
      800.0
    ],
    [
      42.3492355,
      -3.6765234,
      800.0
    ],
    [
      42.3492586,
      -3.6765425,
      800.0
    ],
    [
      42.3466587,
      -3.6812136,
      800.0
    ],
    [
      42.3466864,
      -3.6812339,
      800.0
    ],
    [
      42.3450136,
      -3.6841755,
      800.0
    ],
    [
      42.3450933,
      -3.6841665,
      800.0
    ],
    [
      42.3433122,
      -3.689093,
      800.0
    ],
    [
      42.3433724,
      -3.689116,
      800.0
    ],
    [
      42.3419147,
      -3.695673,
      800.0
    ],
    [
      42.3419426,
      -3.6956938,
      800.0
    ],
    [
      42.3406339,
      -3.6989932,
      800.0
    ],
    [
      42.3406034,
      -3.6989825,
      800.0
    ]
  ],
  "stops": [
    {
      "id": "1699659763",
      "name": "Parada #1699659763",
      "lat": 42.354799,
      "lon": -3.6644021,
      "role": "stop_entry_only"
    },
    {
      "id": "1699659735",
      "name": "Vitoria 255",
      "lat": 42.3548702,
      "lon": -3.6644386,
      "role": "platform"
    },
    {
      "id": "5267910046",
      "name": "Parada #5267910046",
      "lat": 42.3540894,
      "lon": -3.6669311,
      "role": "stop"
    },
    {
      "id": "1699662691",
      "name": "Vitoria – Real y Antigua",
      "lat": 42.354131,
      "lon": -3.6669543,
      "role": "platform"
    },
    {
      "id": "5267910045",
      "name": "Parada #5267910045",
      "lat": 42.352825,
      "lon": -3.67002,
      "role": "stop"
    },
    {
      "id": "1690314436",
      "name": "Vitoria 175",
      "lat": 42.3528595,
      "lon": -3.670048,
      "role": "platform"
    },
    {
      "id": "5267910044",
      "name": "Parada #5267910044",
      "lat": 42.3518821,
      "lon": -3.6717339,
      "role": "stop"
    },
    {
      "id": "1690314432",
      "name": "Vitoria 157",
      "lat": 42.3519112,
      "lon": -3.6717565,
      "role": "platform"
    },
    {
      "id": "5267910043",
      "name": "Parada #5267910043",
      "lat": 42.3507154,
      "lon": -3.6738537,
      "role": "stop"
    },
    {
      "id": "1690315266",
      "name": "Vitoria – Juan XXIII",
      "lat": 42.3507444,
      "lon": -3.6738763,
      "role": "platform"
    },
    {
      "id": "5267910042",
      "name": "Parada #5267910042",
      "lat": 42.3492355,
      "lon": -3.6765234,
      "role": "stop"
    },
    {
      "id": "1690317546",
      "name": "Vitoria – Academia Ingenieros",
      "lat": 42.3492586,
      "lon": -3.6765425,
      "role": "platform"
    },
    {
      "id": "5267866056",
      "name": "Parada #5267866056",
      "lat": 42.3466587,
      "lon": -3.6812136,
      "role": "stop"
    },
    {
      "id": "1690319013",
      "name": "Vitoria 109",
      "lat": 42.3466864,
      "lon": -3.6812339,
      "role": "platform"
    },
    {
      "id": "5267866055",
      "name": "Vitoria 73 - 75",
      "lat": 42.3450136,
      "lon": -3.6841755,
      "role": "stop"
    },
    {
      "id": "1690324179",
      "name": "Vitoria 73-75",
      "lat": 42.3450933,
      "lon": -3.6841665,
      "role": "platform"
    },
    {
      "id": "5265497571",
      "name": "Parada #5265497571",
      "lat": 42.3433122,
      "lon": -3.689093,
      "role": "stop"
    },
    {
      "id": "1690325293",
      "name": "Vitoria – Hacienda",
      "lat": 42.3433724,
      "lon": -3.689116,
      "role": "platform"
    },
    {
      "id": "5265497570",
      "name": "Parada #5265497570",
      "lat": 42.3419147,
      "lon": -3.695673,
      "role": "stop"
    },
    {
      "id": "1690925406",
      "name": "Vitoria 29",
      "lat": 42.3419426,
      "lon": -3.6956938,
      "role": "platform"
    },
    {
      "id": "1701467989",
      "name": "Avenida del Arlanzón",
      "lat": 42.3406339,
      "lon": -3.6989932,
      "role": "stop_exit_only"
    },
    {
      "id": "1690944460",
      "name": "Avda. Arlanzón",
      "lat": 42.3406034,
      "lon": -3.6989825,
      "role": "platform"
    }
  ]
}