{
  "id": "2101005",
  "name": "L06: Ismael García Rámila → Plaza España",
  "ref": "L06",
  "description": "Ruta real de bus urbano gestionada por Servicio Municipalizado de Movilidad y Transportes.",
  "distanceKm": 3.33,
  "elevationGain": 0.0,
  "elevationLoss": 0.0,
  "estWalkingSeconds": 2664,
  "estRunningSeconds": 1089,
  "stopsCount": 22,
  "coords": [
    [
      42.3505769,
      -3.6634542,
      800.0
    ],
    [
      42.3506263,
      -3.6634243,
      800.0
    ],
    [
      42.3510557,
      -3.6661529,
      800.0
    ],
    [
      42.3511243,
      -3.6662141,
      800.0
    ],
    [
      42.3503357,
      -3.6671582,
      800.0
    ],
    [
      42.3503202,
      -3.6672246,
      800.0
    ],
    [
      42.347306,
      -3.6671354,
      800.0
    ],
    [
      42.3473522,
      -3.6671232,
      800.0
    ],
    [
      42.3476296,
      -3.6694418,
      800.0
    ],
    [
      42.3476766,
      -3.6694316,
      800.0
    ],
    [
      42.3485123,
      -3.6759246,
      800.0
    ],
    [
      42.348553,
      -3.6759172,
      800.0
    ],
    [
      42.3486242,
      -3.6796557,
      800.0
    ],
    [
      42.3486503,
      -3.6796783,
      800.0
    ],
    [
      42.3476821,
      -3.6839985,
      800.0
    ],
    [
      42.3477189,
      -3.6840402,
      800.0
    ],
    [
      42.3460624,
      -3.6888461,
      800.0
    ],
    [
      42.3460952,
      -3.6888691,
      800.0
    ],
    [
      42.3448406,
      -3.6930029,
      800.0
    ],
    [
      42.3449004,
      -3.6930367,
      800.0
    ],
    [
      42.3439831,
      -3.6973291,
      800.0
    ],
    [
      42.3440076,
      -3.6974376,
      800.0
    ]
  ],
  "stops": [
    {
      "id": "5694648821",
      "name": "G Ismael G Rámila",
      "lat": 42.3505769,
      "lon": -3.6634542,
      "role": "stop"
    },
    {
      "id": "418621369",
      "name": "G Ismael G Rámila",
      "lat": 42.3506263,
      "lon": -3.6634243,
      "role": "platform"
    },
    {
      "id": "8497953817",
      "name": "Parada #8497953817",
      "lat": 42.3510557,
      "lon": -3.6661529,
      "role": "stop"
    },
    {
      "id": "1692191976",
      "name": "Luis Alberdi 7",
      "lat": 42.3511243,
      "lon": -3.6662141,
      "role": "platform"
    },
    {
      "id": "5265497575",
      "name": "Parada #5265497575",
      "lat": 42.3503357,
      "lon": -3.6671582,
      "role": "stop"
    },
    {
      "id": "1692196111",
      "name": "Derechos Humanos 36",
      "lat": 42.3503202,
      "lon": -3.6672246,
      "role": "platform"
    },
    {
      "id": "5267866060",
      "name": "Parada #5267866060",
      "lat": 42.347306,
      "lon": -3.6671354,
      "role": "stop"
    },
    {
      "id": "1692201030",
      "name": "Avda. Constitución 41",
      "lat": 42.3473522,
      "lon": -3.6671232,
      "role": "platform"
    },
    {
      "id": "5267866059",
      "name": "Parada #5267866059",
      "lat": 42.3476296,
      "lon": -3.6694418,
      "role": "stop"
    },
    {
      "id": "1692222510",
      "name": "Avda. Constitución 27",
      "lat": 42.3476766,
      "lon": -3.6694316,
      "role": "platform"
    },
    {
      "id": "5267866057",
      "name": "Parada #5267866057",
      "lat": 42.3485123,
      "lon": -3.6759246,
      "role": "stop"
    },
    {
      "id": "1692222506",
      "name": "Avda. Constitución 7",
      "lat": 42.348553,
      "lon": -3.6759172,
      "role": "platform"
    },
    {
      "id": "5228048674",
      "name": "Parada #5228048674",
      "lat": 42.3486242,
      "lon": -3.6796557,
      "role": "stop"
    },
    {
      "id": "1692222507",
      "name": "San Roque 1",
      "lat": 42.3486503,
      "lon": -3.6796783,
      "role": "platform"
    },
    {
      "id": "416882003",
      "name": "Parada #416882003",
      "lat": 42.3476821,
      "lon": -3.6839985,
      "role": "stop"
    },
    {
      "id": "13740819354",
      "name": "Avda. CyL - Comisaría",
      "lat": 42.3477189,
      "lon": -3.6840402,
      "role": "platform"
    },
    {
      "id": "5271714722",
      "name": "Parada #5271714722",
      "lat": 42.3460624,
      "lon": -3.6888461,
      "role": "stop"
    },
    {
      "id": "1692231196",
      "name": "Avda La Paz 41",
      "lat": 42.3460952,
      "lon": -3.6888691,
      "role": "platform"
    },
    {
      "id": "5271714721",
      "name": "Parada #5271714721",
      "lat": 42.3448406,
      "lon": -3.6930029,
      "role": "stop"
    },
    {
      "id": "1692231199",
      "name": "Avda. La Paz 15",
      "lat": 42.3449004,
      "lon": -3.6930367,
      "role": "platform"
    },
    {
      "id": "416872923",
      "name": "Parada #416872923",
      "lat": 42.3439831,
      "lon": -3.6973291,
      "role": "stop"
    },
    {
      "id": "715155257",
      "name": "Plaza España – Glorieta",
      "lat": 42.3440076,
      "lon": -3.6974376,
      "role": "platform"
    }
  ]
}