{
  "id": "2588492",
  "name": "Línea 4: Pinar de Chamartín-Argüelles",
  "ref": "L4",
  "description": "Ruta real de metro urbano gestionada por Metro de Madrid.",
  "distanceKm": 13.58,
  "elevationGain": 0.0,
  "elevationLoss": 0.0,
  "estWalkingSeconds": 10866,
  "estRunningSeconds": 4445,
  "stopsCount": 23,
  "coords": [
    [
      40.4799899,
      -3.6670805,
      800.0
    ],
    [
      40.4767341,
      -3.6626413,
      800.0
    ],
    [
      40.47477,
      -3.6521548,
      800.0
    ],
    [
      40.4771661,
      -3.6457089,
      800.0
    ],
    [
      40.4745669,
      -3.6395849,
      800.0
    ],
    [
      40.4699396,
      -3.6386313,
      800.0
    ],
    [
      40.4637731,
      -3.6353925,
      800.0
    ],
    [
      40.4592054,
      -3.6455656,
      800.0
    ],
    [
      40.4559074,
      -3.6561549,
      800.0
    ],
    [
      40.4528467,
      -3.6626926,
      800.0
    ],
    [
      40.4482258,
      -3.6678627,
      800.0
    ],
    [
      40.4437544,
      -3.6746278,
      800.0
    ],
    [
      40.4380258,
      -3.6780472,
      800.0
    ],
    [
      40.4342041,
      -3.6749689,
      800.0
    ],
    [
      40.4293985,
      -3.6753828,
      800.0
    ],
    [
      40.4247928,
      -3.6767543,
      800.0
    ],
    [
      40.4250841,
      -3.6825915,
      800.0
    ],
    [
      40.4252673,
      -3.6865794,
      800.0
    ],
    [
      40.4258155,
      -3.6922281,
      800.0
    ],
    [
      40.427654,
      -3.6960731,
      800.0
    ],
    [
      40.4287276,
      -3.7006942,
      800.0
    ],
    [
      40.4296137,
      -3.7063641,
      800.0
    ],
    [
      40.430502,
      -3.7155187,
      800.0
    ]
  ],
  "stops": [
    {
      "id": "5299261413",
      "name": "Pinar de Chamartín",
      "lat": 40.4799899,
      "lon": -3.6670805,
      "role": "stop"
    },
    {
      "id": "354898747",
      "name": "Manoteras",
      "lat": 40.4767341,
      "lon": -3.6626413,
      "role": "stop"
    },
    {
      "id": "253543665",
      "name": "Hortaleza",
      "lat": 40.47477,
      "lon": -3.6521548,
      "role": "stop"
    },
    {
      "id": "253533921",
      "name": "Parque de Santa María",
      "lat": 40.4771661,
      "lon": -3.6457089,
      "role": "stop"
    },
    {
      "id": "253533918",
      "name": "San Lorenzo",
      "lat": 40.4745669,
      "lon": -3.6395849,
      "role": "stop"
    },
    {
      "id": "5302030278",
      "name": "Mar de Cristal",
      "lat": 40.4699396,
      "lon": -3.6386313,
      "role": "stop"
    },
    {
      "id": "253601582",
      "name": "Canillas",
      "lat": 40.4637731,
      "lon": -3.6353925,
      "role": "stop"
    },
    {
      "id": "253602179",
      "name": "Esperanza",
      "lat": 40.4592054,
      "lon": -3.6455656,
      "role": "stop"
    },
    {
      "id": "253603189",
      "name": "Arturo Soria",
      "lat": 40.4559074,
      "lon": -3.6561549,
      "role": "stop"
    },
    {
      "id": "253603188",
      "name": "Avenida de la Paz",
      "lat": 40.4528467,
      "lon": -3.6626926,
      "role": "stop"
    },
    {
      "id": "253611377",
      "name": "Alfonso XIII",
      "lat": 40.4482258,
      "lon": -3.6678627,
      "role": "stop"
    },
    {
      "id": "11358105045",
      "name": "Prosperidad",
      "lat": 40.4437544,
      "lon": -3.6746278,
      "role": "stop"
    },
    {
      "id": "4893932595",
      "name": "Avenida de América",
      "lat": 40.4380258,
      "lon": -3.6780472,
      "role": "stop"
    },
    {
      "id": "4892851842",
      "name": "Diego de León",
      "lat": 40.4342041,
      "lon": -3.6749689,
      "role": "stop"
    },
    {
      "id": "265814419",
      "name": "Lista",
      "lat": 40.4293985,
      "lon": -3.6753828,
      "role": "stop"
    },
    {
      "id": "265808559",
      "name": "Goya",
      "lat": 40.4247928,
      "lon": -3.6767543,
      "role": "stop"
    },
    {
      "id": "265814147",
      "name": "Velázquez",
      "lat": 40.4250841,
      "lon": -3.6825915,
      "role": "stop"
    },
    {
      "id": "25902051",
      "name": "Serrano",
      "lat": 40.4252673,
      "lon": -3.6865794,
      "role": "stop"
    },
    {
      "id": "25902050",
      "name": "Colón",
      "lat": 40.4258155,
      "lon": -3.6922281,
      "role": "stop"
    },
    {
      "id": "3602269606",
      "name": "Alonso Martínez",
      "lat": 40.427654,
      "lon": -3.6960731,
      "role": "stop"
    },
    {
      "id": "25934729",
      "name": "Bilbao",
      "lat": 40.4287276,
      "lon": -3.7006942,
      "role": "stop"
    },
    {
      "id": "5302296741",
      "name": "San Bernardo",
      "lat": 40.4296137,
      "lon": -3.7063641,
      "role": "stop"
    },
    {
      "id": "5302296742",
      "name": "Argüelles",
      "lat": 40.430502,
      "lon": -3.7155187,
      "role": "stop"
    }
  ]
}