{
  "id": "61834",
  "name": "Línea 5: Casa de Campo-Alameda de Osuna",
  "ref": "L5",
  "description": "Ruta real de metro urbano gestionada por Metro de Madrid.",
  "distanceKm": 21.56,
  "elevationGain": 0.0,
  "elevationLoss": 0.0,
  "estWalkingSeconds": 17244,
  "estRunningSeconds": 7054,
  "stopsCount": 32,
  "coords": [
    [
      40.4035529,
      -3.7609038,
      800.0
    ],
    [
      40.394697,
      -3.768238,
      800.0
    ],
    [
      40.3907288,
      -3.7654716,
      800.0
    ],
    [
      40.3857188,
      -3.7606715,
      800.0
    ],
    [
      40.3844291,
      -3.7510838,
      800.0
    ],
    [
      40.3878336,
      -3.7449956,
      800.0
    ],
    [
      40.3888034,
      -3.7400577,
      800.0
    ],
    [
      40.3886561,
      -3.7317297,
      800.0
    ],
    [
      40.3925542,
      -3.7253867,
      800.0
    ],
    [
      40.3973162,
      -3.7167387,
      800.0
    ],
    [
      40.4020445,
      -3.7120002,
      800.0
    ],
    [
      40.4041047,
      -3.7059068,
      800.0
    ],
    [
      40.407048,
      -3.7111052,
      800.0
    ],
    [
      40.4117597,
      -3.708072,
      800.0
    ],
    [
      40.4180017,
      -3.7095378,
      800.0
    ],
    [
      40.420224,
      -3.7058148,
      800.0
    ],
    [
      40.4200143,
      -3.7015909,
      800.0
    ],
    [
      40.4227327,
      -3.6976417,
      800.0
    ],
    [
      40.4275461,
      -3.6958816,
      800.0
    ],
    [
      40.4330269,
      -3.6896885,
      800.0
    ],
    [
      40.4326586,
      -3.6795477,
      800.0
    ],
    [
      40.4323876,
      -3.674219,
      800.0
    ],
    [
      40.4314788,
      -3.6637579,
      800.0
    ],
    [
      40.4319937,
      -3.6561971,
      800.0
    ],
    [
      40.4331291,
      -3.6481597,
      800.0
    ],
    [
      40.4353939,
      -3.6434195,
      800.0
    ],
    [
      40.437947,
      -3.6377478,
      800.0
    ],
    [
      40.4408907,
      -3.6270212,
      800.0
    ],
    [
      40.4436304,
      -3.617128,
      800.0
    ],
    [
      40.4491308,
      -3.608597,
      800.0
    ],
    [
      40.4536101,
      -3.5941372,
      800.0
    ],
    [
      40.4575988,
      -3.5879859,
      800.0
    ]
  ],
  "stops": [
    {
      "id": "5303127328",
      "name": "Casa de Campo",
      "lat": 40.4035529,
      "lon": -3.7609038,
      "role": "stop_entry_only"
    },
    {
      "id": "49409124",
      "name": "Campamento",
      "lat": 40.394697,
      "lon": -3.768238,
      "role": "stop"
    },
    {
      "id": "21722663",
      "name": "Empalme",
      "lat": 40.3907288,
      "lon": -3.7654716,
      "role": "stop"
    },
    {
      "id": "5303127335",
      "name": "Aluche",
      "lat": 40.3857188,
      "lon": -3.7606715,
      "role": "stop"
    },
    {
      "id": "21722641",
      "name": "Eugenia de Montijo",
      "lat": 40.3844291,
      "lon": -3.7510838,
      "role": "stop"
    },
    {
      "id": "21759737",
      "name": "Carabanchel",
      "lat": 40.3878336,
      "lon": -3.7449956,
      "role": "stop"
    },
    {
      "id": "21775778",
      "name": "Vista Alegre",
      "lat": 40.3888034,
      "lon": -3.7400577,
      "role": "stop"
    },
    {
      "id": "5303127341",
      "name": "Oporto",
      "lat": 40.3886561,
      "lon": -3.7317297,
      "role": "stop"
    },
    {
      "id": "26068752",
      "name": "Urgel",
      "lat": 40.3925542,
      "lon": -3.7253867,
      "role": "stop"
    },
    {
      "id": "21759735",
      "name": "Marqués de Vadillo",
      "lat": 40.3973162,
      "lon": -3.7167387,
      "role": "stop"
    },
    {
      "id": "5303127345",
      "name": "Pirámides",
      "lat": 40.4020445,
      "lon": -3.7120002,
      "role": "stop"
    },
    {
      "id": "21775666",
      "name": "Acacias",
      "lat": 40.4041047,
      "lon": -3.7059068,
      "role": "stop"
    },
    {
      "id": "21759700",
      "name": "Puerta de Toledo",
      "lat": 40.407048,
      "lon": -3.7111052,
      "role": "stop"
    },
    {
      "id": "21759690",
      "name": "La Latina",
      "lat": 40.4117597,
      "lon": -3.708072,
      "role": "stop"
    },
    {
      "id": "5303127349",
      "name": "Ópera",
      "lat": 40.4180017,
      "lon": -3.7095378,
      "role": "stop"
    },
    {
      "id": "5303127353",
      "name": "Callao",
      "lat": 40.420224,
      "lon": -3.7058148,
      "role": "stop"
    },
    {
      "id": "22032372",
      "name": "Gran Vía",
      "lat": 40.4200143,
      "lon": -3.7015909,
      "role": "stop"
    },
    {
      "id": "25906279",
      "name": "Chueca",
      "lat": 40.4227327,
      "lon": -3.6976417,
      "role": "stop"
    },
    {
      "id": "5303127355",
      "name": "Alonso Martínez",
      "lat": 40.4275461,
      "lon": -3.6958816,
      "role": "stop"
    },
    {
      "id": "255881693",
      "name": "Rubén Darío",
      "lat": 40.4330269,
      "lon": -3.6896885,
      "role": "stop"
    },
    {
      "id": "5303127358",
      "name": "Núñez de Balboa",
      "lat": 40.4326586,
      "lon": -3.6795477,
      "role": "stop"
    },
    {
      "id": "265811748",
      "name": "Diego de León",
      "lat": 40.4323876,
      "lon": -3.674219,
      "role": "stop"
    },
    {
      "id": "5303127360",
      "name": "Ventas",
      "lat": 40.4314788,
      "lon": -3.6637579,
      "role": "stop"
    },
    {
      "id": "254133797",
      "name": "El Carmen",
      "lat": 40.4319937,
      "lon": -3.6561971,
      "role": "stop"
    },
    {
      "id": "252523583",
      "name": "Quintana",
      "lat": 40.4331291,
      "lon": -3.6481597,
      "role": "stop"
    },
    {
      "id": "5303127364",
      "name": "Pueblo Nuevo",
      "lat": 40.4353939,
      "lon": -3.6434195,
      "role": "stop"
    },
    {
      "id": "26009598",
      "name": "Ciudad Lineal",
      "lat": 40.437947,
      "lon": -3.6377478,
      "role": "stop"
    },
    {
      "id": "251940779",
      "name": "Suanzes",
      "lat": 40.4408907,
      "lon": -3.6270212,
      "role": "stop"
    },
    {
      "id": "251942153",
      "name": "Torre Arias",
      "lat": 40.4436304,
      "lon": -3.617128,
      "role": "stop"
    },
    {
      "id": "26009601",
      "name": "Canillejas",
      "lat": 40.4491308,
      "lon": -3.608597,
      "role": "stop"
    },
    {
      "id": "21759679",
      "name": "El Capricho",
      "lat": 40.4536101,
      "lon": -3.5941372,
      "role": "stop"
    },
    {
      "id": "251945588",
      "name": "Alameda de Osuna",
      "lat": 40.4575988,
      "lon": -3.5879859,
      "role": "stop_exit_only"
    }
  ]
}