{
  "id": "62917",
  "name": "Línea 8: Nuevos Ministerios-Aeropuerto T4",
  "ref": "L8",
  "description": "Ruta real de metro urbano gestionada por Metro de Madrid.",
  "distanceKm": 14.48,
  "elevationGain": 0.0,
  "elevationLoss": 0.0,
  "estWalkingSeconds": 11580,
  "estRunningSeconds": 4737,
  "stopsCount": 8,
  "coords": [
    [
      40.4454819,
      -3.6915827,
      800.0
    ],
    [
      40.4571282,
      -3.67706,
      800.0
    ],
    [
      40.4678583,
      -3.64869,
      800.0
    ],
    [
      40.4698884,
      -3.6385733,
      800.0
    ],
    [
      40.4639359,
      -3.6155543,
      800.0
    ],
    [
      40.4677938,
      -3.5717894,
      800.0
    ],
    [
      40.4761602,
      -3.5834125,
      800.0
    ],
    [
      40.4923948,
      -3.593248,
      800.0
    ]
  ],
  "stops": [
    {
      "id": "4998691474",
      "name": "Nuevos Ministerios",
      "lat": 40.4454819,
      "lon": -3.6915827,
      "role": "stop"
    },
    {
      "id": "252728558",
      "name": "Colombia",
      "lat": 40.4571282,
      "lon": -3.67706,
      "role": "stop"
    },
    {
      "id": "4405987845",
      "name": "Pinar del Rey",
      "lat": 40.4678583,
      "lon": -3.64869,
      "role": "stop"
    },
    {
      "id": "4405987844",
      "name": "Mar de Cristal",
      "lat": 40.4698884,
      "lon": -3.6385733,
      "role": "stop"
    },
    {
      "id": "4405987840",
      "name": "Feria de Madrid",
      "lat": 40.4639359,
      "lon": -3.6155543,
      "role": "stop"
    },
    {
      "id": "4405987841",
      "name": "Aeropuerto T1-T2-T3",
      "lat": 40.4677938,
      "lon": -3.5717894,
      "role": "stop"
    },
    {
      "id": "4405987839",
      "name": "Barajas",
      "lat": 40.4761602,
      "lon": -3.5834125,
      "role": "stop"
    },
    {
      "id": "4405987838",
      "name": "Aeropuerto T4",
      "lat": 40.4923948,
      "lon": -3.593248,
      "role": "stop"
    }
  ]
}