{
  "id": "7831480",
  "name": "Línea 1: Valdecarros-Pinar de Chamartín",
  "ref": "L1",
  "description": "Ruta real de metro urbano gestionada por Metro de Madrid.",
  "distanceKm": 20.63,
  "elevationGain": 0.0,
  "elevationLoss": 0.0,
  "estWalkingSeconds": 16503,
  "estRunningSeconds": 6751,
  "stopsCount": 33,
  "coords": [
    [
      40.3599634,
      -3.5921671,
      800.0
    ],
    [
      40.3634748,
      -3.5991869,
      800.0
    ],
    [
      40.3692643,
      -3.6124981,
      800.0
    ],
    [
      40.3721742,
      -3.6187642,
      800.0
    ],
    [
      40.3794553,
      -3.6213588,
      800.0
    ],
    [
      40.382605,
      -3.6249635,
      800.0
    ],
    [
      40.3876172,
      -3.6402187,
      800.0
    ],
    [
      40.3900182,
      -3.6458264,
      800.0
    ],
    [
      40.3915983,
      -3.6538731,
      800.0
    ],
    [
      40.3930004,
      -3.6592062,
      800.0
    ],
    [
      40.3959292,
      -3.6647907,
      800.0
    ],
    [
      40.3980679,
      -3.6689877,
      800.0
    ],
    [
      40.401957,
      -3.6762655,
      800.0
    ],
    [
      40.4042921,
      -3.6811818,
      800.0
    ],
    [
      40.4069495,
      -3.6885928,
      800.0
    ],
    [
      40.4087894,
      -3.6914124,
      800.0
    ],
    [
      40.4122762,
      -3.6990937,
      800.0
    ],
    [
      40.4124068,
      -3.7042524,
      800.0
    ],
    [
      40.4169569,
      -3.7031982,
      800.0
    ],
    [
      40.4199161,
      -3.7017321,
      800.0
    ],
    [
      40.4260669,
      -3.7012182,
      800.0
    ],
    [
      40.4297968,
      -3.7010239,
      800.0
    ],
    [
      40.4352746,
      -3.6989306,
      800.0
    ],
    [
      40.4415952,
      -3.7016088,
      800.0
    ],
    [
      40.4458693,
      -3.703463,
      800.0
    ],
    [
      40.4500926,
      -3.7035365,
      800.0
    ],
    [
      40.4545167,
      -3.7027758,
      800.0
    ],
    [
      40.4608653,
      -3.6982584,
      800.0
    ],
    [
      40.4645454,
      -3.6950053,
      800.0
    ],
    [
      40.4664985,
      -3.6897462,
      800.0
    ],
    [
      40.4739641,
      -3.6826335,
      800.0
    ],
    [
      40.4769838,
      -3.6766574,
      800.0
    ],
    [
      40.4800712,
      -3.6670144,
      800.0
    ]
  ],
  "stops": [
    {
      "id": "5299216970",
      "name": "Valdecarros",
      "lat": 40.3599634,
      "lon": -3.5921671,
      "role": "stop"
    },
    {
      "id": "5299216972",
      "name": "Las Suertes",
      "lat": 40.3634748,
      "lon": -3.5991869,
      "role": "stop"
    },
    {
      "id": "5299216977",
      "name": "La Gavia",
      "lat": 40.3692643,
      "lon": -3.6124981,
      "role": "stop"
    },
    {
      "id": "5299216982",
      "name": "Congosto",
      "lat": 40.3721742,
      "lon": -3.6187642,
      "role": "stop"
    },
    {
      "id": "5299216985",
      "name": "Villa de Vallecas",
      "lat": 40.3794553,
      "lon": -3.6213588,
      "role": "stop"
    },
    {
      "id": "5299216987",
      "name": "Sierra de Guadalupe",
      "lat": 40.382605,
      "lon": -3.6249635,
      "role": "stop"
    },
    {
      "id": "5299216997",
      "name": "Miguel Hernández",
      "lat": 40.3876172,
      "lon": -3.6402187,
      "role": "stop"
    },
    {
      "id": "5299217000",
      "name": "Alto del Arenal",
      "lat": 40.3900182,
      "lon": -3.6458264,
      "role": "stop"
    },
    {
      "id": "5299217006",
      "name": "Buenos Aires",
      "lat": 40.3915983,
      "lon": -3.6538731,
      "role": "stop"
    },
    {
      "id": "5299217008",
      "name": "Portazgo",
      "lat": 40.3930004,
      "lon": -3.6592062,
      "role": "stop"
    },
    {
      "id": "5299217010",
      "name": "Nueva Numancia",
      "lat": 40.3959292,
      "lon": -3.6647907,
      "role": "stop"
    },
    {
      "id": "5299217011",
      "name": "Puente de Vallecas",
      "lat": 40.3980679,
      "lon": -3.6689877,
      "role": "stop"
    },
    {
      "id": "5299217013",
      "name": "Pacífico",
      "lat": 40.401957,
      "lon": -3.6762655,
      "role": "stop"
    },
    {
      "id": "5299217017",
      "name": "Menéndez Pelayo",
      "lat": 40.4042921,
      "lon": -3.6811818,
      "role": "stop"
    },
    {
      "id": "5299219122",
      "name": "Atocha",
      "lat": 40.4069495,
      "lon": -3.6885928,
      "role": "stop"
    },
    {
      "id": "5299219127",
      "name": "Estación del Arte",
      "lat": 40.4087894,
      "lon": -3.6914124,
      "role": "stop"
    },
    {
      "id": "5299219130",
      "name": "Antón Martín",
      "lat": 40.4122762,
      "lon": -3.6990937,
      "role": "stop"
    },
    {
      "id": "5299219185",
      "name": "Tirso de Molina",
      "lat": 40.4124068,
      "lon": -3.7042524,
      "role": "stop"
    },
    {
      "id": "5299219187",
      "name": "Sol",
      "lat": 40.4169569,
      "lon": -3.7031982,
      "role": "stop"
    },
    {
      "id": "5299219188",
      "name": "Gran Vía",
      "lat": 40.4199161,
      "lon": -3.7017321,
      "role": "stop"
    },
    {
      "id": "5299219189",
      "name": "Tribunal",
      "lat": 40.4260669,
      "lon": -3.7012182,
      "role": "stop"
    },
    {
      "id": "5299219190",
      "name": "Bilbao",
      "lat": 40.4297968,
      "lon": -3.7010239,
      "role": "stop"
    },
    {
      "id": "5299219193",
      "name": "Iglesia",
      "lat": 40.4352746,
      "lon": -3.6989306,
      "role": "stop"
    },
    {
      "id": "5299219194",
      "name": "Ríos Rosas",
      "lat": 40.4415952,
      "lon": -3.7016088,
      "role": "stop"
    },
    {
      "id": "5299219195",
      "name": "Cuatro Caminos",
      "lat": 40.4458693,
      "lon": -3.703463,
      "role": "stop"
    },
    {
      "id": "5299219197",
      "name": "Alvarado",
      "lat": 40.4500926,
      "lon": -3.7035365,
      "role": "stop"
    },
    {
      "id": "5299219209",
      "name": "Estrecho",
      "lat": 40.4545167,
      "lon": -3.7027758,
      "role": "stop"
    },
    {
      "id": "5299219215",
      "name": "Tetuán",
      "lat": 40.4608653,
      "lon": -3.6982584,
      "role": "stop"
    },
    {
      "id": "5299219204",
      "name": "Valdeacederas",
      "lat": 40.4645454,
      "lon": -3.6950053,
      "role": "stop"
    },
    {
      "id": "5299219138",
      "name": "Plaza de Castilla",
      "lat": 40.4664985,
      "lon": -3.6897462,
      "role": "stop"
    },
    {
      "id": "5299219156",
      "name": "Chamartín",
      "lat": 40.4739641,
      "lon": -3.6826335,
      "role": "stop"
    },
    {
      "id": "5299219167",
      "name": "Bambú",
      "lat": 40.4769838,
      "lon": -3.6766574,
      "role": "stop"
    },
    {
      "id": "5299219181",
      "name": "Pinar de Chamartín",
      "lat": 40.4800712,
      "lon": -3.6670144,
      "role": "stop"
    }
  ]
}